stop_id,stop_code,stop_name,stop_desc,stop_lat,stop_lon,zone_id,stop_url,location_type,parent_station,stop_timezone,wheelchair_boarding
1000:1,1000,Glen Northbound @ Medina,,43.87268331,-78.855412,,,0,,,1
1001:1,1001,Northbound @ 825 Glen,,43.87529628,-78.856489,,,0,,,1
1002:1,1002,Malaga Westbound @ Oxford,,43.875507,-78.858799,,,0,,,1
1003:1,1003,Malaga Westbound @ Park,,43.874698,-78.862502,,,0,,,1
100:1,100,McQuay Northbound @ Dundas,,43.87593224,-78.961715,,,0,,,1
1014:1,1014,Malaga Eastbound @ Park,,43.87443,-78.863301,,,0,,,2
1015:1,1015,Malaga Eastbound @ Oxford (West side stop),,43.875032,-78.86054799999998,,,0,,,1
1016:1,1016,Malaga Eastbound @ Oxford (East side stop),,43.875586,-78.857982,,,0,,,1
1017:1,1017,Southbound @ 830 Glen,,43.87507063000001,-78.85656,,,0,,,1
1018:1,1018,Glen Southbound @ Medina,,43.87281378,-78.855636,,,0,,,1
1019:1,1019,Glen Southbound @ Porter,,43.871258,-78.854967,,,0,,,1
101:1,101,McQuay Northbound @ Moonstone,,43.878431,-78.96314599999998,,,0,,,1
1020:1,1020,Wentworth Eastbound @ Ravine,,43.873007,-78.846475,,,0,,,1
1023:1,1023,Simcoe Southbound @ Ritson,,43.872059,-78.841181,,,0,,,1
1024:1,1024,Simcoe Southbound @ Wellington,,43.870666,-78.8386,,,0,,,1
1025:1,1025,Simcoe Southbound @ Kawartha,,43.86897900000001,-78.835431,,,0,,,1
1027:1,1027,Westbound @ 60 Lakeview Park,,43.863287,-78.82959099999998,,,0,,,1
1029:1,1029,Lakeview Park Westbound @ Ritson,,43.861379,-78.836721,,,0,,,1
102:1,102,McQuay Northbound @ Kennett,,43.879593,-78.965224,,,0,,,1
1030:1,1030,Ritson Northbound @ Madawaska,,43.863309,-78.837959,,,0,,,2
1031:1,1031,Phillip Murray Southbound @ Fundy,,43.864094,-78.84241,,,0,,,1
1032:1,1032,Phillip Murray Southbound @ Scugog,,43.86300700000001,-78.84441,,,0,,,1
1033:1,1033,Cedar Northbound @ Phillip Murray,,43.86144322995122,-78.84781779532226,,,0,,,1
103:1,103,McQuay Northbound @ Balsdon,,43.881326,-78.966408,,,0,,,1
104:1,104,McQuay Northbound @ Bonacord,,43.8836627,-78.9673866,,,0,,,1
1052:1,1052,Eastbound @ 1733 Victoria,,43.867405,-78.899322,,,0,,,2
1053:1,1053,Eastbound @ 555 Bloor,,43.8748675,-78.8787787,,,0,,,1
1055:1,1055,Eastbound @ 249 Bloor,,43.878406,-78.864296,,,0,,,1
1056:1,1056,Bloor Eastbound @ Oxford,,43.879381,-78.860118,,,0,,,1
1057:1,1057,Bloor Eastbound @ Simcoe,,43.880241,-78.856285,,,0,,,1
1058:1,1058,Bloor Eastbound @ Albert,,43.880885,-78.853414,,,0,,,1
1059:1,1059,Bloor Eastbound @ Merritt,,43.8816337,-78.8499396,,,0,,,1
105:1,105,McQuay Northbound @ Guthrie,,43.8852378,-78.968363,,,0,,,1
1066:1,1066,Eastbound @ 887 Bloor,,43.888433,-78.819826,,,0,,,2
1067:1,1067,Grandview Southbound @ Bloor (South side stop),,43.889648,-78.813063,,,0,,,1
1068:1,1068,Grandview Southbound @ Downview,,43.88767,-78.810582,,,0,,,1
1069:1,1069,Grandview Southbound @ Norman,,43.88659650000001,-78.8095866,,,0,,,1
106:1,106,McQuay Northbound @ Renfield,,43.888336,-78.969264,,,0,,,1
1070:1,1070,Grandview Eastbound @ Southdown,,43.886499,-78.806985,,,0,,,1
1071:1,1071,Townline Northbound @ Grandview,,43.88752003,-78.80497908,,,0,,,1
1073:1,1073,Townline Northbound @ Gord Vinson,,43.8893175,-78.805783,,,0,,,1
1074:1,1074,Townline Northbound @ Bloor (North side stop),,43.891624,-78.80677,,,0,,,1
107:1,107,McQuay Northbound @ Jacob,,43.89000200000001,-78.97109399999998,,,0,,,1
1080:1,1080,Westbound @ 882 Bloor,,43.888469,-78.820015,,,0,,,1
1083:1,1083,Bloor Westbound @ Farewell,,43.885798,-78.83223599999998,,,0,,,1
1084:1,1084,Bloor Westbound @ Holland,,43.885282,-78.83441,,,0,,,1
1088:1,1088,Bloor Westbound @ Merritt,,43.881681,-78.85046,,,0,,,1
1089:1,1089,Bloor Westbound @ Simcoe,,43.880638,-78.855267,,,0,,,1
108:1,108,McQuay Westbound @ Muir,,43.889791,-78.97463999999998,,,0,,,1
1090:1,1090,Bloor Westbound @ Oxford,,43.8794327,-78.86027799999998,,,0,,,1
1091:1,1091,Bloor Westbound @ Park,,43.878553,-78.864334,,,0,,,1
1096:1,1096,Simcoe Northbound @ Wentworth,,43.874477,-78.845479,,,0,,,1
1097:1,1097,Simcoe Northbound @ Frank,,43.876246,-78.848778,,,0,,,1
10:1,10,Garden Northbound @ Bassett (South stop),,43.89754400000001,-78.93895,,,0,,,1
1101:1,1101,Eastbound @ 1189 Colonel Sam,,43.878222,-78.807633,,,0,,,1
1118:1,1118,Farewell Southbound @ Bloor,,43.884732,-78.83069399999998,,,0,,,1
1119:1,1119,Farewell Southbound @ Raleigh,,43.881319,-78.829233,,,0,,,1
1120:1,1120,Farewell Southbound @ Wentworth,,43.8799536,-78.8286811,,,0,,,1
1132:1,1132,Park Northbound @ Quebec,,43.887357,-78.869767,,,0,,,2
1133:1,1133,King Westbound @ Townline,,43.90656,-78.81421,,,0,,,1
1134:1,1134,King Westbound @ Athabasca,,43.906087,-78.818826,,,0,,,1
1135:1,1135,King Westbound @ Kingsway College,,43.905816,-78.821771,,,0,,,1
1136:1,1136,King Westbound @ Keewatin,,43.90592800000001,-78.827635,,,0,,,1
1137:1,1137,King Westbound @ Melrose,,43.90541000000001,-78.829896,,,0,,,1
1138:1,1138,Harmony Northbound @ King,,43.905084,-78.834293,,,0,,,1
1139:1,1139,Harmony Northbound @ Regent,,43.907681,-78.835475,,,0,,,1
1140:1,1140,Harmony Northbound @ Eastbourne,,43.908962,-78.836021,,,0,,,1
1141:1,1141,Harmony Northbound @ Adelaide,,43.91195900000001,-78.837306,,,0,,,2
1142:1,1142,Northbound @ 443 Harmony,,43.917231,-78.839598,,,0,,,1
1143:1,1143,Harmony Northbound @ Swiss,,43.933475,-78.84678599999998,,,0,,,1
1144:1,1144,Harmony Northbound @ Grand Ridge,,43.935668,-78.847728,,,0,,,1
1145:1,1145,Harmony Southbound @ Adelaide,,43.91292,-78.83798,,,0,,,1
1146:1,1146,Harmony Southbound @ Eastbourne,,43.90900100000001,-78.836235,,,0,,,1
1147:1,1147,Harmony Southbound @ Regent,,43.907603,-78.835614,,,0,,,1
1148:1,1148,Harmony Southbound @ King,,43.904711,-78.83438599999998,,,0,,,1
1149:1,1149,Harmony Southbound @ Palace,,43.90330500000001,-78.833634,,,0,,,1
1150:1,1150,Harmony Southbound @ Hoskin,,43.901176,-78.83266999999998,,,0,,,1
1151:1,1151,Southbound @ 188 Harmony,,43.899357,-78.831854,,,0,,,2
1152:1,1152,Harmony Southbound @ Florell,,43.896955,-78.830782,,,0,,,1
1153:1,1153,Harmony Northbound @ Old Harmony,,43.89775,-78.830938,,,0,,,1
1154:1,1154,Harmony Northbound @ Hoskin,,43.899752,-78.831838,,,0,,,1
1155:1,1155,Harmony Northbound @ Palace,,43.90378813,-78.833706,,,0,,,2
1156:1,1156,King Westbound @ Harmony,,43.90424800000001,-78.835009,,,0,,,2
1157:1,1157,Bond Northbound @ Riverside,,43.90426723,-78.837534,,,0,,,1
1158:1,1158,Bond Westbound @ Claymore (East side stop),,43.90453,-78.84238999999998,,,0,,,1
1159:1,1159,Bond Westbound @ Claymore (West side stop),,43.904135,-78.844005,,,0,,,1
1160:1,1160,Bond Westbound @ Cadillac,,43.90335675,-78.847111,,,0,,,1
1161:1,1161,Bond Westbound @ Patricia,,43.902664,-78.84988199999998,,,0,,,1
1162:1,1162,Bond Westbound @ Oshawa Boulevard,,43.901254,-78.85265699999998,,,0,,,1
1163:1,1163,Bond Westbound @ Ritson,,43.900548,-78.855176,,,0,,,1
1164:1,1164,Bond Westbound @ Mary,,43.899252,-78.86069,,,0,,,1
1165:1,1165,Bond Westbound @ Simcoe,,43.89857640000001,-78.8638232,,,0,,,2
1166:1,1166,Bond Westbound @ Centre,,43.8980427,-78.86599339999998,,,0,,,1
1167:1,1167,Bond Westbound @ Arena,,43.8971812,-78.8700233,,,0,,,2
1169:1,1169,Bond Westbound @ Park,,43.896215,-78.87463099999998,,,0,,,1
1171:1,1171,Bond Westbound @ Gibbons,,43.895268,-78.878156,,,0,,,1
1172:1,1172,Bond Westbound @ Stevenson,,43.89388328,-78.884232,,,0,,,1
1173:1,1173,King Westbound @ Waverly,,43.892156,-78.888154,,,0,,,1
1174:1,1174,King Westbound @ Thornton,,43.89066900000001,-78.894721,,,0,,,1
1175:1,1175,King Eastbound @ Thornton,,43.8910876,-78.8920772,,,0,,,1
1176:1,1176,King Eastbound @ Waverly,,43.891958,-78.88811099999998,,,0,,,1
1177:1,1177,King Eastbound @ Stevenson,,43.89334800000001,-78.88199,,,0,,,1
1178:1,1178,King Eastbound @ Gibbons,,43.89406180000001,-78.8787275,,,0,,,1
1181:1,1181,King Eastbound @ Warren,,43.895479,-78.872558,,,0,,,2
1183:1,1183,King Eastbound @ Midtown,,43.896359,-78.868644,,,0,,,2
1185:1,1185,King Eastbound @ Mary,,43.898339,-78.860061,,,0,,,2
1186:1,1186,King Eastbound @ Drew,,43.899141,-78.856595,,,0,,,2
1187:1,1187,King Eastbound @ Rowe,,43.89992500000001,-78.853177,,,0,,,1
1188:1,1188,King Eastbound @ Central Park,,43.901002,-78.848573,,,0,,,1
1189:1,1189,King Eastbound @ Cadillac,,43.901543,-78.846174,,,0,,,1
1190:1,1190,King Eastbound @ Wilson,,43.902215,-78.843385,,,0,,,2
1191:1,1191,Eastbound @ 623 King,,43.902746,-78.841037,,,0,,,2
1192:1,1192,King Eastbound @ Farewell,,43.903023,-78.839804,,,0,,,1
1193:1,1193,King Eastbound @ Riverside,,43.90361,-78.837145,,,0,,,1
1194:1,1194,King Eastbound @ Harmony,,43.904153,-78.834637,,,0,,,1
1195:1,1195,King Eastbound @ Melrose,,43.905525,-78.828657,,,0,,,1
1196:1,1196,King Eastbound @ Keewatin,,43.905856,-78.82687,,,0,,,1
1197:1,1197,King Eastbound @ Grandview,,43.90560521,-78.823016,,,0,,,1
1198:1,1198,King Eastbound @ Rockcliffe,,43.905817,-78.820278,,,0,,,1
1199:1,1199,King Eastbound @ Eastlawn,,43.90612500000001,-78.816804,,,0,,,1
11:1,11,Garden Northbound @ Rossland (Durham Region Headquarters),,43.898916,-78.939531,,,0,,,1
1200:1,1200,King Eastbound @ Townline,,43.906406,-78.813775,,,0,,,1
1217:1,1217,Courtice Southbound @ Moyse (Courtice Community Complex),,43.914105,-78.778936,,,0,,,2
1218:1,1218,Highway 2 Westbound @ Courtice,,43.911594,-78.779235,,,0,,,1
1219:1,1219,Highway 2 Westbound @ Trulls,,43.911048,-78.788115,,,0,,,1
1220:1,1220,Highway 2 Westbound @ Sandringham,,43.909174,-78.79601,,,0,,,2
1221:1,1221,Highway 2 Westbound @ Prestonvale,,43.908585,-78.797674,,,0,,,1
1222:1,1222,Highway 2 Westbound @ Centerfield,,43.90764200000001,-78.803571,,,0,,,1
1223:1,1223,Highway 2 Westbound @ Varcoe,,43.907163,-78.807587,,,0,,,1
1224:1,1224,Highway 2 Eastbound @ Darlington Boulevard,,43.906907,-78.808273,,,0,,,1
1225:1,1225,Highway 2 Eastbound @ Old Kingston,,43.907393,-78.803827,,,0,,,1
1226:1,1226,Courtice Southbound @ Highway 2,,43.910864,-78.777544,,,0,,,2
1227:1,1227,Sandringham Westbound @ Short,,43.909137,-78.778369,,,0,,,1
1228:1,1228,Avondale Southbound @ Stagemaster,,43.907937,-78.779807,,,0,,,1
1229:1,1229,Avondale Southbound @ Brownstone,,43.90579242,-78.780964,,,0,,,1
1230:1,1230,Avondale Southbound @ Farmington,,43.904046,-78.781861,,,0,,,1
1231:1,1231,Trulls Northbound @ Avondale,,43.903403,-78.784876,,,0,,,1
1232:1,1232,Northbound @ 2501 Trulls,,43.90456300000001,-78.785437,,,0,,,1
1233:1,1233,Sandringham Westbound @ Bushford,,43.9059139,-78.78781669999998,,,0,,,1
1234:1,1234,Sandringham Westbound @ Yorkville,,43.90300993000001,-78.790682,,,0,,,1
1242:1,1242,King Eastbound @ Simcoe,,43.89762300000001,-78.863176,,,0,,,2
1244:1,1244,Highway 2 Eastbound @ Prestonvale,,43.908429,-78.797456,,,0,,,1
1245:1,1245,Highway 2 Eastbound @ Trulls,,43.910829,-78.787906,,,0,,,1
1257:1,1257,Olive Westbound @ Elmridge,,43.89510700000001,-78.83126799999998,,,0,,,1
1258:1,1258,Olive Westbound @ Poplar,,43.894441,-78.834343,,,0,,,1
1259:1,1259,Olive Westbound @ Baldwin,,43.89386600000001,-78.836928,,,0,,,1
125:1,125,Taunton Eastbound @ Cochrane,,43.912852,-78.96736199999998,,,0,,,2
1260:1,1260,Olive Westbound @ Wilson,,43.893383,-78.839031,,,0,,,1
1261:1,1261,Olive Westbound @ Highland,,43.892828,-78.841487,,,0,,,1
1262:1,1262,Olive Westbound @ Lasalle,,43.892535,-78.842817,,,0,,,1
1263:1,1263,Olive Westbound @ Verdun,,43.891779,-78.846057,,,0,,,1
1264:1,1264,Olive Westbound @ Ritson,,43.890989,-78.849481,,,0,,,2
1265:1,1265,Olive Westbound @ Drew,,43.89046,-78.851768,,,0,,,2
1266:1,1266,Olive Westbound @ Court,,43.889641,-78.855284,,,0,,,1
1267:1,1267,Albert Northbound @ Barrie,,43.890098,-78.857947,,,0,,,2
1276:1,1276,Gibb Westbound @ Montrave,,43.8881292,-78.87118169999998,,,0,,,1
1277:1,1277,Gibb Westbound @ Grenfell,,43.887291,-78.874471,,,0,,,1
1278:1,1278,Westbound @ 450 Gibb,,43.88680200000001,-78.87697,,,0,,,1
1280:1,1280,Gibb Westbound @ Stevenson,,43.88595200000001,-78.880912,,,0,,,1
1281:1,1281,Gibb Westbound @ Waverly,,43.885118,-78.884574,,,0,,,1
1282:1,1282,Gibb Westbound @ Vancouver,,43.884493,-78.887244,,,0,,,1
1283:1,1283,Gibb Eastbound @ Vancouver,,43.884355,-78.88744699999998,,,0,,,1
1284:1,1284,Gibb Eastbound @ Waverley,,43.885076,-78.884308,,,0,,,1
1285:1,1285,Gibb Eastbound @ Stevenson,,43.885932,-78.88051299999998,,,0,,,1
1286:1,1286,Gibb Eastbound @ Stevenson (East side stop),,43.88625932,-78.87870599999998,,,0,,,1
1287:1,1287,Eastbound @ 431 Gibb,,43.886764,-78.876312,,,0,,,1
1288:1,1288,Gibb Eastbound @ Grenfell,,43.887267,-78.874165,,,0,,,1
1289:1,1289,Gibb Eastbound @ Montrave,,43.88775900000001,-78.87204699999998,,,0,,,1
1296:1,1296,Elm Eastbound @ Celina,,43.890744,-78.859464,,,0,,,1
1297:1,1297,Olive Eastbound @ Court,,43.889552,-78.855367,,,0,,,1
1298:1,1298,Olive Eastbound @ Drew,,43.890302,-78.852093,,,0,,,1
1299:1,1299,Olive Eastbound @ Oshawa Boulevard,,43.891187,-78.848202,,,0,,,1
1300:1,1300,Olive Eastbound @ Lasalle,,43.89248,-78.842598,,,0,,,1
1301:1,1301,Olive Eastbound @ Highland,,43.892801,-78.841125,,,0,,,1
1302:1,1302,Olive Eastbound @ Windsor,,43.893281,-78.839043,,,0,,,1
1303:1,1303,Olive Eastbound @ Guelph,,43.89384600000001,-78.836642,,,0,,,1
1304:1,1304,Olive Eastbound @ Poplar,,43.894358,-78.834306,,,0,,,1
1305:1,1305,Olive Eastbound @ Elmridge,,43.89498,-78.831355,,,0,,,1
1342:1,1342,Glenabbey Westbound @ Auburn,,43.89545963,-78.801444,,,0,,,1
1343:1,1343,Glenabbey Westbound @ Bruntsfield,,43.894379,-78.804111,,,0,,,1
1353:1,1353,Northbound @ 1185 Mary,,43.928625,-78.873907,,,0,,,1
1354:1,1354,Nonquon Northbound @ Mary,,43.931137,-78.87249799999998,,,0,,,1
1355:1,1355,Mary Northbound @ Nonquon,,43.93247800000001,-78.87221,,,0,,,1
1356:1,1356,Mary Northbound @ Taunton,,43.93385593,-78.872776,,,0,,,1
1359:1,1359,Park Southbound @ King,,43.895694,-78.873767,,,0,,,2
1360:1,1360,Park Southbound @ Pine,,43.893793,-78.87290299999998,,,0,,,2
1361:1,1361,Park Southbound @ Elmgrove,,43.891968,-78.872083,,,0,,,2
1362:1,1362,Park Southbound @ Marland,,43.88699031,-78.869855,,,0,,,2
1363:1,1363,Park Northbound @ John,,43.8922679,-78.8719904,,,0,,,2
1364:1,1364,Park Northbound @ King,,43.8946786,-78.873147,,,0,,,2
1371:1,1371,Beatrice Westbound @ Sycamore,,43.929548,-78.869207,,,0,,,1
1372:1,1372,Beatrice Westbound @ Mary,,43.926963,-78.872625,,,0,,,1
1387:1,1387,Northbound @ 227 Ormond,,43.936751,-78.871436,,,0,,,1
1388:1,1388,Ormond Eastbound @ Ritson,,43.937781,-78.870628,,,0,,,1
138:1,138,McQuay Southbound @ Roan,,43.881419,-78.966575,,,0,,,1
139:1,139,McQuay Southbound @ Kennett,,43.879842,-78.96569599999998,,,0,,,1
140:1,140,McQuay Southbound @ Moonstone,,43.878277,-78.963114,,,0,,,1
141:1,141,McQuay Southbound @ Allayden,,43.876649,-78.962215,,,0,,,1
1430:1,1430,King Westbound @ Liberty,,43.910554,-78.680784,,,0,,,2
1431:1,1431,King Westbound @ George,,43.911481,-78.68621,,,0,,,2
1432:1,1432,King Westbound @ Temperance,,43.91215300000001,-78.688526,,,0,,,2
1433:1,1433,King Westbound @ Roenigk,,43.912962,-78.695055,,,0,,,1
1436:1,1436,Highway 2 Westbound @ Boswell,,43.909692,-78.71688,,,0,,,1
1452:1,1452,King Eastbound @ Roenigk,,43.912771,-78.694976,,,0,,,1
1454:1,1454,King Eastbound @ Division,,43.911662,-78.687321,,,0,,,2
1455:1,1455,King Eastbound @ Ontario,,43.911026,-78.684811,,,0,,,2
1456:1,1456,King Eastbound @ Liberty,,43.91041,-78.680907,,,0,,,1
1479:1,1479,Church Eastbound @ Scugog Street,,43.913909,-78.691688,,,0,,,1
1480:1,1480,Church Eastbound @ Temperance,,43.913138,-78.688545,,,0,,,2
1498:1,1498,Simpson Northbound @ King,,43.911329,-78.675014,,,0,,,1
1499:1,1499,Prince Eastbound @ Liberty (Lakeridge Health Bowmanville),,43.908346,-78.678921,,,0,,,1
1504:1,1504,Clarington Boulevard Southbound @ Prince William,,43.908456,-78.70716,,,0,,,1
1508:1,1508,Altona Northbound @ Kingston,,43.808908,-79.1325431,,,0,,,1
1509:1,1509,Altona Northbound @ Brookridge,,43.81012900000001,-79.133048,,,0,,,1
1510:1,1510,Altona Northbound @ Fiddlers,,43.813671,-79.134619,,,0,,,1
1511:1,1511,Altona Northbound @ Rougemount,,43.8153103,-79.1352275,,,0,,,1
1512:1,1512,Altona Northbound @ Sheppard,,43.817616,-79.136396,,,0,,,1
1513:1,1513,Altona Northbound @ Granby,,43.8202247,-79.137773,,,0,,,1
1518:1,1518,Pine Grove Southbound @ Sandhurst,,43.826274,-79.14505,,,0,,,1
1519:1,1519,Pine Grove Westbound @ Nordane,,43.825165,-79.145977,,,0,,,1
1520:1,1520,Pine Grove Westbound @ Rockwood,,43.824613,-79.148501,,,0,,,1
1521:1,1521,Pine Grove Southbound @ Valley Ridge,,43.82257,-79.149972,,,0,,,1
1522:1,1522,Valley Ridge Southbound @ Copley,,43.82160600000001,-79.15148,,,0,,,1
1523:1,1523,Valley Ridge Southbound @ Thicket,,43.82025500000001,-79.15088799999998,,,0,,,1
1524:1,1524,Valley Ridge Southbound @ White Pine,,43.818731,-79.150199,,,0,,,1
1525:1,1525,Hogarth Eastbound @ Rockwood,,43.81810200000001,-79.145893,,,0,,,1
1541:1,1541,Altona Southbound @ Littleford,,43.816015,-79.1358222,,,0,,,1
1542:1,1542,Altona Southbound @ Fiddlers,,43.813513,-79.134657,,,0,,,1
1543:1,1543,Altona Southbound @ Valley Gate,,43.8108077,-79.1336181,,,0,,,1
1544:1,1544,Altona Southbound @ Kingston,,43.80878135,-79.132761,,,0,,,1
1581:1,1581,Strouds Lane Eastbound @ Shadybrook,,43.8301782,-79.1178386,,,0,,,1
1582:1,1582,Strouds Lane Eastbound @ Spruce Hill,,43.83172131,-79.11490499999998,,,0,,,1
1583:1,1583,Strouds Lane Eastbound @ Fairport,,43.832659,-79.110984,,,0,,,1
1584:1,1584,Strouds Lane Westbound @ Cricket Lane,,43.830842,-79.116853,,,0,,,1
1587:1,1587,Kingston Westbound @ Audley,,43.868228,-78.995249,,,0,,,2
1588:1,1588,Kingston Westbound @ Alexanders Crossing,,43.86702,-79.00077,,,0,,,1
1590:1,1590,Kingston Westbound @ Wicks,,43.8643554,-79.0125542,,,0,,,1
1591:1,1591,Kingston Westbound @ Salem,,43.8634084,-79.0168413,,,0,,,1
1593:1,1593,Westbound @ 84 Kingston,,43.862111,-79.022563,,,0,,,1
1594:1,1594,Kingston Westbound @ Harwood,,43.8611712,-79.0267418,,,0,,,1
1595:1,1595,Westbound @ 132 Kingston,,43.859995,-79.031718,,,0,,,1
1596:1,1596,Kingston Westbound @ Chapman,,43.859254,-79.035043,,,0,,,1
1597:1,1597,Kingston Westbound @ Westney Heights Plaza,,43.85832,-79.03932,,,0,,,1
1598:1,1598,Kingston Westbound @ Westney,,43.85744,-79.043041,,,0,,,1
1599:1,1599,Kingston Westbound @ Mill,,43.856298,-79.047905,,,0,,,2
1600:1,1600,Kingston Westbound @ Church,,43.85465700000001,-79.05529,,,0,,,2
1601:1,1601,Kingston Westbound @ Elizabeth,,43.853329,-79.060678,,,0,,,1
1602:1,1602,Kingston Westbound @ Notion,,43.852381,-79.064752,,,0,,,1
1603:1,1603,Kingston Westbound @ Bainbridge,,43.8501483,-79.0710031,,,0,,,1
1604:1,1604,Kingston Westbound @ Brock Road,,43.84772,-79.07452499999998,,,0,,,1
1607:1,1607,Kingston Westbound @ Valley Farm,,43.84172800000001,-79.083084,,,0,,,1
1608:1,1608,Kingston Westbound @ Glenanna,,43.83815,-79.08748,,,0,,,1
1609:1,1609,Kingston Westbound @ Liverpool,,43.83548,-79.09104,,,0,,,1
1610:1,1610,Kingston Westbound @ Walnut,,43.83097019,-79.09672757,,,0,,,1
1611:1,1611,Kingston Westbound @ Dixie,,43.82906,-79.098675,,,0,,,1
1612:1,1612,Kingston Westbound @ Fairport,,43.823716,-79.106421,,,0,,,1
1613:1,1613,Westbound @ 804 Kingston,,43.821703,-79.111949,,,0,,,1
1615:1,1615,Kingston Westbound @ Steeple Hill,,43.817215,-79.118076,,,0,,,1
1616:1,1616,Kingston Westbound @ Rosebank,,43.81332,-79.123324,,,0,,,1
1617:1,1617,Kingston Westbound @ Rougemount,,43.809718,-79.129028,,,0,,,1
1645:1,1645,West Shore Southbound @ Vistula,,43.82025,-79.105278,,,0,,,1
1662:1,1662,West Shore Southbound @ Cecylia,,43.8189771,-79.1047516,,,0,,,1
1663:1,1663,West Shore Southbound @ Samford,,43.817692,-79.104211,,,0,,,1
1664:1,1664,West Shore Southbound @ Breezy,,43.815805,-79.10339399999998,,,0,,,2
166:1,166,Brock Street Northbound @ Arthur,,43.86900700000001,-78.937411,,,0,,,2
1673:1,1673,West Shore Northbound @ Breezy,,43.815597,-79.103191,,,0,,,1
1674:1,1674,West Shore Northbound @ Samford,,43.817582,-79.104031,,,0,,,1
1675:1,1675,West Shore Northbound @ Cecylia,,43.818659,-79.10448599999998,,,0,,,1
167:1,167,Brock Street Northbound @ St Peter,,43.87108400000001,-78.93832,,,0,,,2
1685:1,1685,Oklahoma Westbound @ West Shore,,43.813826,-79.103099,,,0,,,1
1686:1,1686,Westbound @ 838 Oklahoma,,43.813337,-79.105305,,,0,,,1
1687:1,1687,Oklahoma Westbound @ Hillcrest,,43.813024,-79.10671499999998,,,0,,,1
1689:1,1689,Bayly Eastbound @ West Shore,,43.821218,-79.105446,,,0,,,1
168:1,168,Brock Street Northbound @ Burns,,43.872514,-78.938948,,,0,,,2
1690:1,1690,Eastbound @ 957 Bayly,,43.8227518,-79.1021915,,,0,,,1
1691:1,1691,Eastbound @ 1001 Bayly,,43.82372800000001,-79.100129,,,0,,,1
1692:1,1692,Bayly Eastbound @ Begley,,43.82626900000001,-79.094717,,,0,,,1
1693:1,1693,Bayly Eastbound @ St Martins,,43.827085,-79.092836,,,0,,,1
1694:1,1694,Bayly Eastbound @ Liverpool,,43.828787,-79.08666599999998,,,0,,,1
1695:1,1695,Bayly Eastbound @ Krosno,,43.829995,-79.08099799999998,,,0,,,2
169:1,169,Brock Street Northbound @ Trent,,43.873574,-78.93940499999998,,,0,,,2
1701:1,1701,Alyssum Eastbound @ Lublin,,43.824092,-79.075833,,,0,,,1
1702:1,1702,Lublin Southbound @ Balaton,,43.82249500000001,-79.074689,,,0,,,2
1703:1,1703,Parkham Eastbound @ Sandy Beach,,43.81946355,-79.072533,,,0,,,1
1705:1,1705,Southbound @ 675 Sandy Beach Road,,43.815212,-79.070712,,,0,,,2
1706:1,1706,Montgomery Park Eastbound @ OPG Pickering,,43.8143165023665,-79.06519369171588,,,0,,,2
1707:1,1707,Montgomery Park Eastbound @ Brock Road,,43.815436,-79.06028999999998,,,0,,,2
1709:1,1709,McKay Northbound @ Montgomery Park,,43.819181,-79.05741,,,0,,,2
170:1,170,Brock Street Northbound @ Gilbert,,43.87664417732835,-78.9408107746133,,,0,,,2
1710:1,1710,McKay Eastbound @ Squires Beach,,43.820715,-79.055269,,,0,,,2
1711:1,1711,Squires Beach Northbound @ McKay,,43.821982,-79.05191499999998,,,0,,,2
1712:1,1712,Northbound @ 1111 Squires Beach,,43.824595,-79.053029,,,0,,,2
1713:1,1713,Clements Westbound @ Squires Beach,,43.827022,-79.054705,,,0,,,2
1714:1,1714,Westbound @ 1850 Clements,,43.8266135,-79.05666669999998,,,0,,,2
1715:1,1715,Westbound @ 1768 Clements,,43.825697,-79.060627,,,0,,,2
1716:1,1716,Clements Westbound @ Brock Road,,43.825146,-79.063235,,,0,,,1
1719:1,1719,Brock Road Northbound @ Quigley,,43.82876000000001,-79.065535,,,0,,,2
171:1,171,Brock Street Northbound @ Dundas,,43.879703,-78.94210099999998,,,0,,,2
1720:1,1720,Brock Road Northbound @ Orangebrook,,43.830614,-79.066323,,,0,,,2
1724:1,1724,Brock Road Northbound @ Kingston,,43.848587,-79.07411399999998,,,0,,,1
1729:1,1729,Liverpool Northbound @ Pickering Parkway,,43.833073,-79.08913099999998,,,0,,,2
172:1,172,Brock Street Northbound @ John,,43.882531,-78.943093,,,0,,,2
17301,1730,Liverpool Northbound @ Kingston,,43.835391,-79.090151,,,0,,,1
1731:1,1731,Northbound @ 1851 Liverpool,,43.837643,-79.09107,,,0,,,1
1732:1,1732,Liverpool Northbound @ Glenanna,,43.83937800000001,-79.091944,,,0,,,1
1733:1,1733,Northbound @ 1917 Liverpool,,43.840787,-79.092623,,,0,,,1
17341,1734,Liverpool Northbound @ Anton Square,,43.842877,-79.093507,,,0,,,1
173:1,173,Brock Street Northbound @ Walnut,,43.884079,-78.943797,,,0,,,2
1741:1,1741,Liverpool Southbound @ Pickering Parkway,,43.832976,-79.089382,,,0,,,1
1742:1,1742,Kingston Westbound @ Whites,,43.818764,-79.115943,,,0,,,1
1743:1,1743,Whites Northbound @ Sheppard,,43.821974,-79.116675,,,0,,,2
1744:1,1744,Northbound @ 1675 Whites,,43.824528,-79.117997,,,0,,,2
1745:1,1745,Whites Northbound @ Briar Wood,,43.826169,-79.11869299999998,,,0,,,2
1746:1,1746,Whites Northbound @ Strouds,,43.82930600000001,-79.12002099999998,,,0,,,1
1747:1,1747,Whites Northbound @ New,,43.833399,-79.121756,,,0,,,1
1748:1,1748,Northbound @ 1953 Whites,,43.836551,-79.123093,,,0,,,1
1749:1,1749,Whites Northbound @ Finch,,43.838667,-79.12405,,,0,,,2
174:1,174,Brock Street Northbound @ Chestnut,,43.88521,-78.944286,,,0,,,2
1750:1,1750,Whites Northbound @ Amaretto,,43.841554,-79.125589,,,0,,,2
1751:1,1751,Whites Southbound @ Sunbird Trail,,43.84406700000001,-79.126966,,,0,,,1
1752:1,1752,Whites Southbound @ Amaretto,,43.8417042,-79.1258657,,,0,,,1
1753:1,1753,Whites Southbound @ Finch,,43.83854,-79.124218,,,0,,,1
1754:1,1754,Southbound @ 1956 Whites,,43.83660900000001,-79.12335299999998,,,0,,,1
1755:1,1755,Whites Southbound @ Highview,,43.83396548000001,-79.122213,,,0,,,1
1756:1,1756,Whites Southbound @ Strouds,,43.829869,-79.120489,,,0,,,1
1757:1,1757,Whites Southbound @ Bayfield,,43.826304,-79.118976,,,0,,,1
1758:1,1758,Southbound @ 1690 Whites,,43.8241985,-79.1180706,,,0,,,1
1759:1,1759,Whites Southbound @ Sheppard,,43.821446,-79.116696,,,0,,,1
175:1,175,Brock Street Northbound @ Maple,,43.886266,-78.94474599999998,,,0,,,2
1760:1,1760,Bayly Eastbound @ Sandy Beach,,43.83072700000001,-79.077511,,,0,,,1
1761:1,1761,Bayly Eastbound @ Alliance,,43.83155,-79.07395099999998,,,0,,,1
1762:1,1762,Bayly Eastbound @ Salk,,43.832321,-79.070556,,,0,,,1
1763:1,1763,Bayly Eastbound @ Brock Road,,43.83279628,-79.06841759,,,0,,,1
1764:1,1764,Bayly Eastbound @ Toy,,43.833567,-79.064971,,,0,,,1
1765:1,1765,Bayly Westbound @ Toy,,43.8336033,-79.0656863,,,0,,,1
1766:1,1766,Bayly Westbound @ Brock Road,,43.832884,-79.068809,,,0,,,1
1767:1,1767,Bayly Westbound @ Salk,,43.8324969,-79.0705011,,,0,,,1
1768:1,1768,Bayly Westbound @ Alliance,,43.83159,-79.074425,,,0,,,1
1769:1,1769,Bayly Westbound @ Sandy Beach,,43.830956,-79.077296,,,0,,,1
176:1,176,Northbound @ 807 Brock Street,,43.890498,-78.946574,,,0,,,1
1770:1,1770,Bayly Westbound @ Krosno,,43.830141,-79.08112199999998,,,0,,,1
1771:1,1771,Westbound @ 1400 Bayly,,43.82978700000001,-79.08286699999998,,,0,,,1
1772:1,1772,Bayly Westbound @ St Martins,,43.82763700000001,-79.092178,,,0,,,1
1773:1,1773,Bayly Westbound @ Begley,,43.826366,-79.094832,,,0,,,2
1774:1,1774,Westbound @ 950 Bayly,,43.822905,-79.10225,,,0,,,2
1776:1,1776,Kingston Eastbound @ Rougemount,,43.80911600000001,-79.129988,,,0,,,1
1777:1,1777,Kingston Eastbound @ Rosebank,,43.812717,-79.123765,,,0,,,1
1778:1,1778,Kingston Eastbound @ Steeple Hill,,43.816824,-79.11821999999998,,,0,,,1
1779:1,1779,Kingston Eastbound @ Whites,,43.819366,-79.114699,,,0,,,1
177:1,177,Brock Street Northbound @ Manning,,43.891901,-78.947176,,,0,,,1
1780:1,1780,Eastbound @ 817 Kingston,,43.82242200000001,-79.110401,,,0,,,2
1781:1,1781,Kingston Eastbound @ Fairport,,43.823526,-79.1066,,,0,,,2
1782:1,1782,Kingston Eastbound @ Dixie,,43.828459,-79.098733,,,0,,,1
1783:1,1783,Kingston Eastbound @ Walnut,,43.830837,-79.096536,,,0,,,1
1786:1,1786,Kingston Eastbound @ Glenanna,,43.838707,-79.08637299999998,,,0,,,1
1787:1,1787,Kingston Eastbound @ Valley Farm,,43.842456,-79.081877,,,0,,,2
1789:1,1789,Kingston Eastbound @ Brock Road,,43.84806,-79.0734468,,,0,,,1
1790:1,1790,Kingston Eastbound @ Bainbridge,,43.8504078,-79.0700786,,,0,,,1
1792:1,1792,Finch Westbound @ Valley Farm,,43.847733,-79.085486,,,0,,,1
179:1,179,Brock Street Northbound @ Wallace,,43.8946592,-78.9483474,,,0,,,1
180:1,180,Brock Street Northbound @ Rossland,,43.896874,-78.949308,,,0,,,1
181:1,181,Brock Street Northbound @ Kenneth Hobbs,,43.900152,-78.950988,,,0,,,2
182:1,182,Brock Street Northbound @ Dryden,,43.903112,-78.95233,,,0,,,2
1832:1,1832,Southbound @ 725 Krosno,,43.82171000000001,-79.08241599999998,,,0,,,1
183:1,183,Northbound @ 3603 Brock Street,,43.90666800000001,-78.953906,,,0,,,2
1842:1,1842,Liverpool Southbound @ Haller,,43.8230252,-79.0848981,,,0,,,1
1846:1,1846,Brock Road Northbound @ Usman,,43.852804,-79.076493,,,0,,,2
1847:1,1847,Brock Road Northbound @ Major Oaks,,43.854784,-79.077417,,,0,,,2
1849:1,1849,Dellbrook Westbound @ Melman,,43.858563,-79.08041799999998,,,0,,,1
184:1,184,Brock Street Northbound @ Woodlands,,43.908529,-78.954721,,,0,,,2
1850:1,1850,Dellbrook Westbound @ Denby,,43.85838300000001,-79.081826,,,0,,,1
1851:1,1851,Dellbrook Northbound @ Melman,,43.859736,-79.083173,,,0,,,1
1852:1,1852,Dellbrook Westbound @ Blue Ridge (East stop),,43.8607027,-79.0856358,,,0,,,1
1853:1,1853,Dellbrook Westbound @ Blue Ridge (West stop),,43.861105,-79.087913,,,0,,,1
1854:1,1854,Dellbrook Westbound @ Major Oaks,,43.860264,-79.089584,,,0,,,1
1855:1,1855,Major Oaks Southbound @ Pepperwood,,43.85834100000001,-79.088725,,,0,,,1
185:1,185,Brock Street Northbound @ Joy Thompson,,43.91229400000001,-78.956318,,,0,,,2
1861:1,1861,Southbound @ 2058 Brock Road (Brock Ridge Community Park),,43.85219,-79.07651799999998,,,0,,,1
1863:1,1863,Southbound @ 1972 Valley Farm,,43.845921,-79.084151,,,0,,,1
1866:1,1866,Finch Westbound @ Rosefield,,43.846859,-79.089437,,,0,,,1
1867:1,1867,Finch Westbound @ Forest Park,,43.84609300000001,-79.092827,,,0,,,2
1868:1,1868,Finch Westbound @ Glendale,,43.845458,-79.095872,,,0,,,1
1869:1,1869,Finch Westbound @ Maple Ridge,,43.84467200000001,-79.099164,,,0,,,2
186:1,186,Brock Street Northbound @ Taunton,,43.91494265,-78.957317,,,0,,,1
1870:1,1870,Finch Westbound @ Dixie,,43.84351,-79.10432,,,0,,,1
1871:1,1871,Finch Westbound @ Lynn Heights,,43.84276,-79.10741299999998,,,0,,,2
1872:1,1872,Finch Westbound @ Duncannon,,43.84227253,-79.10974521999998,,,0,,,2
1873:1,1873,Finch Westbound @ Fairport,,43.841299,-79.114271,,,0,,,2
1874:1,1874,Finch Westbound @ Darwin,,43.840751,-79.117121,,,0,,,2
187:1,187,Baldwin Northbound @ Broadleaf,,43.91826600000001,-78.958405,,,0,,,1
1886:1,1886,Finch Eastbound @ Darwin,,43.840725,-79.116653,,,0,,,2
1887:1,1887,Finch Eastbound @ Fairport,,43.841082,-79.114864,,,0,,,2
1888:1,1888,Finch Eastbound @ Huntsmill,,43.84167,-79.112022,,,0,,,1
188:1,188,Baldwin Northbound @ Robert Attersley,,43.922073,-78.960088,,,0,,,2
1890:1,1890,Finch Eastbound @ Dixie,,43.843166,-79.105023,,,0,,,1
1891:1,1891,Finch Eastbound @ Bowler,,43.84459300000001,-79.099123,,,0,,,2
1892:1,1892,Finch Eastbound @ Liverpool,,43.845489,-79.09511,,,0,,,1
1893:1,1893,Finch Eastbound @ Forest Park,,43.846007,-79.092982,,,0,,,2
1894:1,1894,Finch Eastbound @ Rosefield,,43.84660860000001,-79.0900957,,,0,,,1
1895:1,1895,Finch Eastbound @ Valley Farm,,43.847673,-79.08531,,,0,,,1
189:1,189,Baldwin Northbound @ Sleepy Hollow,,43.92549000000001,-78.961574,,,0,,,2
1909:1,1909,Pickering Town Centre,,43.833439,-79.08446499999998,,,0,,,2
190:1,190,Baldwin Northbound @ Robmar,,43.935355,-78.961073,,,0,,,2
1915:1,1915,Glenanna Southbound @ The Esplanade (South side stop),,43.83744,-79.084563,,,0,,,1
191:1,191,Baldwin Southbound @ Robmar,,43.935439,-78.96117,,,0,,,2
1920:1,1920,Glenanna Westbound @ Glendale,,43.838509,-79.093254,,,0,,,1
1921:1,1921,Glenanna Westbound @ Bronte,,43.83803000000001,-79.095309,,,0,,,1
1922:1,1922,Glenanna Westbound @ Listowell,,43.83683700000001,-79.09910499999998,,,0,,,1
1923:1,1923,Glenanna Westbound @ Dixie,,43.8364337,-79.1013673,,,0,,,1
1924:1,1924,Glenanna Westbound @ Echo Point,,43.835718,-79.10453099999998,,,0,,,1
1925:1,1925,Glenanna Westbound @ Heathside,,43.836339,-79.10620299999998,,,0,,,1
1926:1,1926,Glenanna Westbound @ Huntsmill,,43.83837,-79.109861,,,0,,,1
1927:1,1927,Glenanna Westbound @ Fairport,,43.837897,-79.112257,,,0,,,1
1928:1,1928,Glenanna Eastbound @ Eagleview,,43.837903,-79.111643,,,0,,,1
1929:1,1929,Glenanna Eastbound @ Brookshire,,43.838224,-79.10930399999998,,,0,,,1
192:1,192,Baldwin Southbound @ Sonley,,43.925998,-78.962027,,,0,,,2
1930:1,1930,Glenanna Southbound @ Heathside,,43.836255,-79.106323,,,0,,,1
1931:1,1931,Glenanna Eastbound @ Rawlings,,43.835856,-79.103337,,,0,,,1
1932:1,1932,Glenanna Eastbound @ Dixie,,43.836196,-79.101806,,,0,,,1
1933:1,1933,Glenanna Eastbound @ Listowell,,43.836731,-79.099024,,,0,,,1
1934:1,1934,Glenanna Eastbound @ Bowler,,43.83762,-79.096622,,,0,,,1
1935:1,1935,Glenanna Eastbound @ Glendale,,43.838287,-79.09366799999998,,,0,,,1
1936:1,1936,Glenanna Southbound @ Kingston,,43.8390289,-79.0881538,,,0,,,1
193:1,193,Baldwin Southbound @ Robert Attersley (North side stop),,43.922437,-78.96051,,,0,,,2
1940:1,1940,Walmart Westbound @ Kingston,,43.866833,-79.013503,,,0,,,2
1941:1,1941,Bainbridge Southbound @ Kingston,,43.849848,-79.070113,,,0,,,1
1942:1,1942,Northbound @ 1802 Bainbridge,,43.84941,-79.069849,,,0,,,1
1943:1,1943,Bainbridge Eastbound @ Burnside,,43.847531,-79.068619,,,0,,,1
1944:1,1944,Bainbridge Eastbound @ Fairfield,,43.848043,-79.066569,,,0,,,1
1945:1,1945,Marshcourt Southbound @ Beechlawn,,43.84662440000001,-79.06465439999998,,,0,,,2
1946:1,1946,Marshcourt Southbound @ Ashford,,43.8448944,-79.0636586,,,0,,,1
1947:1,1947,Pickering Parkway Westbound @ Beechlawn,,43.843901,-79.065168,,,0,,,1
1949:1,1949,Westbound @ 1738 Pickering Parkway,,43.8436022,-79.0698917,,,0,,,1
195:1,195,Baldwin Southbound @ Broadleaf,,43.918627,-78.958862,,,0,,,1
1960:1,1960,Pickering Parkway Eastbound @ Valley Farm,,43.836906,-79.078013,,,0,,,1
1961:1,1961,Pickering Parkway Northbound @ Portland,,43.839791,-79.072916,,,0,,,1
1962:1,1962,Pickering Parkway Eastbound @ Dreyber,,43.8413,-79.07337099999998,,,0,,,1
1963:1,1963,Pickering Parkway Eastbound @ Denmar,,43.84296100000001,-79.073721,,,0,,,1
1964:1,1964,Eastbound @ 1733 Pickering Parkway,,43.843629,-79.070464,,,0,,,1
1965:1,1965,Eastbound @ 1755 Pickering Parkway,,43.8431731,-79.0678524,,,0,,,1
1966:1,1966,Pickering Parkway Eastbound @ Beechlawn,,43.84381900000001,-79.065034,,,0,,,1
1967:1,1967,Marshcourt Northbound @ Ashford,,43.8450351,-79.0635992,,,0,,,1
1969:1,1969,Marshcourt Northbound @ Bainbridge,,43.848133,-79.065265,,,0,,,1
196:1,196,Baldwin Southbound @ Taunton,,43.9161151,-78.95792659999998,,,0,,,2
1970:1,1970,Bainbridge Westbound @ Fairfield,,43.848146,-79.066524,,,0,,,1
1971:1,1971,Bainbridge Westbound @ Burnside,,43.847684,-79.06826,,,0,,,1
197:1,197,Southbound @ 3800 Brock Street,,43.913297,-78.957001,,,0,,,1
1982:1,1982,Fairport Southbound @ Voyager,,43.835113,-79.111872,,,0,,,2
1983:1,1983,Fairport Southbound @ Strouds,,43.83288182,-79.111001,,,0,,,1
1984:1,1984,Fairport Northbound @ Bonita,,43.833996,-79.111275,,,0,,,1
1986:1,1986,Liverpool Southbound @ Patmore,,43.824687,-79.085622,,,0,,,1
198:1,198,Brock Street Southbound @ Whitburn,,43.909126,-78.955175,,,0,,,2
199:1,199,Southbound @ 3626 Brock Street,,43.907209,-78.954297,,,0,,,2
2002:1,2002,Liverpool Northbound @ Haller,,43.823093,-79.084806,,,0,,,1
2003:1,2003,Liverpool Northbound @ Patmore,,43.824917,-79.085611,,,0,,,1
2004:1,2004,Bayly Eastbound @ Squires Beach,,43.83507642,-79.05785441,,,0,,,2
200:1,200,Brock Street Southbound @ James Rowe,,43.903602,-78.952735,,,0,,,2
2015:1,2015,Finley Southbound @ Burden,,43.821244,-79.02283199999998,,,0,,,1
2016:1,2016,Finley Southbound @ Lake Driveway,,43.819269,-79.019469,,,0,,,2
201:1,201,Brock Street Southbound @ McCartney,,43.900605,-78.951449,,,0,,,2
2022:1,2022,Lake Driveway Northbound @ Hawkins,,43.823774,-79.034075,,,0,,,1
2023:1,2023,Lake Driveway Northbound @ Kipling,,43.826225,-79.032934,,,0,,,1
2024:1,2024,Lake Driveway Eastbound @ Walker,,43.8289,-79.032247,,,0,,,1
2029:1,2029,Clover Ridge Southbound @ Bryant,,43.830365,-79.003947,,,0,,,1
202:1,202,Brock Street Southbound @ Rossland,,43.897776,-78.950113,,,0,,,1
2030:1,2030,Clover Ridge Southbound @ Gregory,,43.829063,-79.00503,,,0,,,1
2031:1,2031,Clover Ridge Westbound @ Crawford,,43.827273,-79.0073526,,,0,,,1
2032:1,2032,Clover Ridge Westbound @ Dorling,,43.826658,-79.009997,,,0,,,1
203:1,203,Brock Street Southbound @ Palmerston,,43.8943729,-78.9484346,,,0,,,1
204:1,204,Brock Street Southbound @ Starr (North side stop),,43.892863,-78.947754,,,0,,,1
2053:1,2053,Monarch Southbound @ Centennial,,43.839545,-79.023794,,,0,,,2
2054:1,2054,Southbound @ 556 Monarch,,43.83624600000001,-79.022383,,,0,,,2
20551,2055,Monarch Southbound @ Clements,,43.834733,-79.021721,,,0,,,1
2056:1,2056,Monarch Southbound @ Barr,,43.83296,-79.02002299999998,,,0,,,2
2058:1,2058,Clover Ridge Westbound @ Harwood,,43.82619600000001,-79.01322,,,0,,,1
2059:1,2059,Clover Ridge Southbound @ Pittmann,,43.82488,-79.015046,,,0,,,1
205:1,205,Brock Street Southbound @ Starr (South side stop),,43.89159,-78.947226,,,0,,,1
2060:1,2060,Clover Ridge Southbound @ Bolland,,43.822811,-79.014773,,,0,,,1
2061:1,2061,Clover Ridge Southbound @ Lake Driveway,,43.82116,-79.01454099999998,,,0,,,2
2062:1,2062,Lake Driveway Eastbound @ Harwood,,43.821489,-79.012673,,,0,,,2
2063:1,2063,Harwood Northbound @ McRae,,43.822912,-79.01264,,,0,,,1
2064:1,2064,Harwood Northbound @ Clover Ridge,,43.825457,-79.013211,,,0,,,1
2065:1,2065,Harwood Northbound @ Gorton,,43.82833209000001,-79.013822,,,0,,,1
2066:1,2066,Northbound @ 819 Harwood,,43.83001,-79.014268,,,0,,,1
2067:1,2067,Northbound @ 721 Harwood,,43.833888,-79.015002,,,0,,,1
2068:1,2068,Northbound @ 655 Harwood,,43.836126,-79.014843,,,0,,,1
2069:1,2069,Harwood Northbound @ Emperor (Lakeridge Health Ajax Pickering),,43.837528,-79.01542,,,0,,,1
206:1,206,Southbound @ 814 Brock Street,,43.8904162,-78.9467193,,,0,,,1
2070:1,2070,Harwood Northbound @ Falby,,43.839992,-79.017956,,,0,,,2
2072:1,2072,Harwood Northbound @ Bayly,,43.843789,-79.018082,,,0,,,1
2073:1,2073,Harwood Northbound @ Kings Crescent (South stop),,43.846645,-79.019272,,,0,,,1
2074:1,2074,Harwood Northbound @ Kings Crescent (North stop),,43.84973200000001,-79.02055799999998,,,0,,,1
2076:1,2076,Harwood Southbound @ Kings Crescent,,43.849235,-79.020696,,,0,,,2
2078:1,2078,Harwood Southbound @ Bayly,,43.844243,-79.018636,,,0,,,1
2079:1,2079,Harwood Southbound @ Falby,,43.839809,-79.018227,,,0,,,1
207:1,207,Brock Street Southbound @ Maple,,43.886977,-78.945274,,,0,,,2
2080:1,2080,Southbound @ 580 Harwood Avenue South (Lakeridge Health Ajax Pickering),,43.83667100000001,-79.015332,,,0,,,1
2081:1,2081,Harwood Southbound @ Clements,,43.83498800000001,-79.015122,,,0,,,1
2082:1,2082,Southbound @ 766 Harwood,,43.83234800000001,-79.01500299999998,,,0,,,1
2083:1,2083,Harwood Southbound @ Westney,,43.831109,-79.014812,,,0,,,1
208:1,208,Brock Street Southbound @ Chestnut,,43.884855,-78.944315,,,0,,,2
2092:1,2092,Pickering Beach Northbound @ Rollo (South stop),,43.8317563,-79.0021836,,,0,,,2
2093:1,2093,Northbound @ 727 Pickering Beach,,43.83484,-79.00351499999998,,,0,,,1
2094:1,2094,Pickering Beach Northbound @ Rollo (North stop),,43.8365894,-79.0042527,,,0,,,1
2095:1,2095,Pickering Beach Northbound @ Howling Crescent,,43.841101,-79.006067,,,0,,,1
2096:1,2096,Pickering Beach Northbound @ Greenhalf,,43.84355324,-79.006018,,,0,,,1
2097:1,2097,Pickering Beach Northbound @ Powers Valley,,43.84503584,-79.00557499999998,,,0,,,1
209:1,209,Brock Street Southbound @ Walnut,,43.883763,-78.943838,,,0,,,2
210:1,210,Brock Street Southbound @ Mary,,43.882233,-78.94316,,,0,,,2
211:1,211,Brock Street Southbound @ Dundas,,43.87995200000001,-78.942282,,,0,,,2
212:1,212,Brock Street Southbound @ Gilbert,,43.876878,-78.941093,,,0,,,2
2136:1,2136,Harwood Northbound @ Biggs,,43.881794,-79.02769499999998,,,0,,,1
2137:1,2137,Harwood Northbound @ Woodcock,,43.88408900000001,-79.028774,,,0,,,1
2138:1,2138,Harwood Westbound @ Woodcock,,43.885292,-79.032422,,,0,,,1
2139:1,2139,Harwood Northbound @ Williamson,,43.8880633,-79.0372909,,,0,,,1
213:1,213,Brock Street Southbound @ Ontario,,43.87582900000001,-78.940579,,,0,,,2
2140:1,2140,Southbound @ 1532 Harwood,,43.886603,-79.036797,,,0,,,2
2141:1,2141,Harwood Southbound @ Woodcock,,43.88507983,-79.03234399999998,,,0,,,1
2142:1,2142,Southbound @ 1370 Harwood,,43.884808,-79.030202,,,0,,,1
2143:1,2143,Harwood Southbound @ Biggs,,43.88232766,-79.028197,,,0,,,1
2144:1,2144,Harwood Southbound @ Rossland,,43.8802553,-79.0273906,,,0,,,1
2145:1,2145,Harwood Southbound @ Fishlock,,43.877704,-79.026265,,,0,,,1
2146:1,2146,Harwood Southbound @ Hibbard,,43.874193,-79.024716,,,0,,,1
2147:1,2147,Harwood Southbound @ Kerrison,,43.87033000000001,-79.024269,,,0,,,1
2148:1,2148,Harwood Southbound @ Ringer,,43.867723,-79.02528,,,0,,,1
2149:1,2149,Harwood Southbound @ Chapman,,43.86438600000001,-79.026404,,,0,,,1
214:1,214,Brock Street Southbound @ Trent,,43.873776,-78.939683,,,0,,,2
2151:1,2151,Harwood Southbound @ Kingston,,43.861847,-79.02633899999998,,,0,,,1
2152:1,2152,Harwood Southbound @ Gardiner,,43.858871,-79.02495999999998,,,0,,,1
2153:1,2153,Harwood Southbound @ Ontario,,43.857094,-79.024118,,,0,,,2
2154:1,2154,Harwood Southbound @ Brock Street,,43.855292,-79.023336,,,0,,,1
2155:1,2155,Harwood Northbound @ Oak,,43.854752,-79.02292199999998,,,0,,,1
2156:1,2156,Harwood Northbound @ Doric,,43.856625,-79.023745,,,0,,,1
2157:1,2157,Harwood Northbound @ Mandrake,,43.858455,-79.024518,,,0,,,1
2158:1,2158,Harwood Northbound @ Kingston,,43.861921,-79.02605,,,0,,,1
2159:1,2159,Harwood Northbound @ Chapman,,43.863997,-79.026117,,,0,,,1
215:1,215,Southbound @ 786 Brock Street,,43.872757,-78.93923599999998,,,0,,,2
2160:1,2160,Harwood Northbound @ Ringer,,43.867257,-79.025183,,,0,,,1
2161:1,2161,Harwood Northbound @ Kerrison,,43.869841,-79.024135,,,0,,,1
2162:1,2162,Harwood Northbound @ Hibbard,,43.873823,-79.02424999999998,,,0,,,1
2163:1,2163,Harwood Northbound @ Fishlock,,43.877314,-79.025754,,,0,,,1
2164:1,2164,Harwood Northbound @ Rossland,,43.87954400000001,-79.02673,,,0,,,1
2166:1,2166,Westbound @ 570 Rossland,,43.87172121,-79.060263,,,0,,,1
2167:1,2167,Rossland Eastbound @ Stevensgate,,43.874749,-79.04948,,,0,,,2
2168:1,2168,Rossland Eastbound @ Pearce,,43.87542,-79.046516,,,0,,,2
2169:1,2169,Rossland Eastbound @ Westney,,43.876463,-79.04190199999998,,,0,,,1
216:1,216,Brock Street Southbound @ Burns,,43.871232,-78.938597,,,0,,,2
2171:1,2171,Rossland Eastbound @ Salem,,43.881463,-79.019467,,,0,,,1
2172:1,2172,Rossland Eastbound @ Rushworth,,43.883402,-79.011115,,,0,,,1
2173:1,2173,Rossland Eastbound @ Hilton,,43.884305,-79.007262,,,0,,,2
2174:1,2174,Rossland Eastbound @ Audley,,43.885035,-79.004013,,,0,,,2
2175:1,2175,Rossland Eastbound @ Lake Ridge,,43.887478,-78.993144,,,0,,,1
2176:1,2176,Rossland Westbound @ Lake Ridge,,43.887606,-78.993369,,,0,,,1
2177:1,2177,Rossland Westbound @ Audley,,43.885318,-79.00336,,,0,,,2
2178:1,2178,Rossland Westbound @ Hilton,,43.884465,-79.007121,,,0,,,2
2179:1,2179,Rossland Westbound @ Rushworth,,43.883554,-79.01085999999998,,,0,,,2
217:1,217,Brock Street Southbound @ Arthur,,43.8691799,-78.9376805,,,0,,,2
2218:1,2218,Kingston Eastbound @ Wicks,,43.8648288,-79.00946,,,0,,,1
2220:1,2220,Kingston Eastbound @ Alexanders Crossing,,43.866897,-79.00020499999998,,,0,,,1
2221:1,2221,Kingston Eastbound @ Audley,,43.867763,-78.996374,,,0,,,2
2233:1,2233,Kingston Eastbound @ Elizabeth,,43.85324,-79.060413,,,0,,,2
2234:1,2234,Eastbound @ 625 Kingston,,43.85417000000001,-79.056628,,,0,,,2
2235:1,2235,Kingston Eastbound @ Mill,,43.85603900000001,-79.048411,,,0,,,2
2236:1,2236,Kingston Eastbound @ Westney,,43.8576991,-79.0409645,,,0,,,1
2238:1,2238,Kingston Eastbound @ Ritchie,,43.858841,-79.035728,,,0,,,1
2240:1,2240,Eastbound @ 113 Kingston,,43.860433,-79.028621,,,0,,,1
2241:1,2241,Kingston Eastbound @ Harwood,,43.861263,-79.025056,,,0,,,1
2242:1,2242,Eastbound @ 69 Kingston,,43.862037,-79.021604,,,0,,,1
2244:1,2244,Rossland Westbound @ Salem,,43.881479,-79.020109,,,0,,,1
2245:1,2245,Southbound @ 1750 Westney,,43.889739,-79.048878,,,0,,,2
2246:1,2246,Westney Southbound @ Atherton,,43.88795600000001,-79.04816599999998,,,0,,,2
2247:1,2247,Westney Southbound @ Williamson,,43.88526,-79.047031,,,0,,,2
2248:1,2248,Southbound @ 1328 Westney,,43.881817,-79.04553799999998,,,0,,,2
2249:1,2249,Westney Southbound @ Telford,,43.880069,-79.04483999999998,,,0,,,2
2250:1,2250,Westney Southbound @ Rossland (North side stop),,43.877313,-79.043719,,,0,,,1
2252:1,2252,Westney Northbound @ Rossland,,43.87696840000001,-79.0432136,,,0,,,1
2253:1,2253,Westney Northbound @ Telford,,43.879701,-79.044516,,,0,,,2
2254:1,2254,Northbound @ 1331 Westney,,43.881886,-79.045439,,,0,,,2
2256:1,2256,Westney Northbound @ Curtis,,43.88721000000001,-79.047648,,,0,,,2
2257:1,2257,Northbound @ 1753 Westney,,43.88983600000001,-79.048786,,,0,,,2
2258:1,2258,Westney Southbound @ Rossland (South side stop),,43.87519152,-79.042872,,,0,,,1
2259:1,2259,Westney Southbound @ Coughlen,,43.872596,-79.041717,,,0,,,1
2260:1,2260,Westney Southbound @ Ivers,,43.8698042,-79.04054189999998,,,0,,,1
2261:1,2261,Westney Southbound @ Delaney,,43.866866,-79.039272,,,0,,,1
2262:1,2262,Southbound @ 350 Westney,,43.86482,-79.039095,,,0,,,1
2263:1,2263,Southbound @ 216 Westney,,43.8632403,-79.0398311,,,0,,,1
2264:1,2264,Westney Southbound @ Millington,,43.860608,-79.041014,,,0,,,2
2265:1,2265,Westney Southbound @ Kingston (North side stop),,43.857804,-79.041983,,,0,,,1
2266:1,2266,Westney Southbound @ Bramwell,,43.854027,-79.041345,,,0,,,1
2268:1,2268,Westney Southbound @ Fairall,,43.846828,-79.03957,,,0,,,1
2269:1,2269,Westney Southbound @ O'Brien,,43.8434567,-79.03655988,,,0,,,1
2270:1,2270,Westney Southbound @ Bayly,,43.84046,-79.035459,,,0,,,1
2276:1,2276,Westney Eastbound @ Harwood,,43.83075500000001,-79.016374,,,0,,,2
2277:1,2277,Westney Northbound @ Clements,,43.831821,-79.032781,,,0,,,1
2280:1,2280,Westney Northbound @ Bayly (North side stop),,43.8412546,-79.0353224,,,0,,,1
2281:1,2281,Westney Northbound @ O'Brien,,43.843068,-79.036025,,,0,,,1
2282:1,2282,Westney Northbound @ Ritchie,,43.853799,-79.041066,,,0,,,1
2283:1,2283,Westney Northbound @ Kingston,,43.85724787,-79.04155679,,,0,,,1
2285:1,2285,Westney Northbound @ Ravenscroft,,43.861546,-79.040329,,,0,,,1
2286:1,2286,Westney Northbound @ Magill,,43.866181,-79.038754,,,0,,,1
2287:1,2287,Westney Northbound @ Ivers,,43.87030193,-79.040561,,,0,,,1
2288:1,2288,Westney Northbound @ Sullivan,,43.8737626,-79.04188859999998,,,0,,,1
2298:1,2298,Liverpool Northbound @ Bayly,,43.827964,-79.086894,,,0,,,2
2299:1,2299,Bayly Eastbound @ Church,,43.83746702,-79.04730836,,,0,,,1
2300:1,2300,Bayly Eastbound @ Westney,,43.840287,-79.03458,,,0,,,1
2301:1,2301,Bayly Eastbound @ Finley,,43.841093,-79.030872,,,0,,,1
2302:1,2302,Bayly Eastbound @ Mackenzie,,43.841851,-79.02756599999998,,,0,,,1
2303:1,2303,Bayly Eastbound @ Monarch,,43.8423437,-79.025254,,,0,,,1
2304:1,2304,Bayly Eastbound @ Woodchester,,43.842726,-79.02351899999998,,,0,,,2
2305:1,2305,Bayly Eastbound @ Kitney,,43.84317126919851,-79.02178735174796,,,0,,,1
2307:1,2307,Bayly Eastbound @ Burcher,,43.845278,-79.012218,,,0,,,1
2308:1,2308,Bayly Eastbound @ Porte,,43.846033,-79.009096,,,0,,,1
2309:1,2309,Bayly Eastbound @ Pickering Beach,,43.846502,-79.006585,,,0,,,1
2310:1,2310,Bayly Eastbound @ Shoal Point,,43.848164,-78.99917499999998,,,0,,,2
2311:1,2311,Bayly Westbound @ Shoal Point,,43.84862720000001,-78.99802099999998,,,0,,,1
2312:1,2312,Bayly Westbound @ Boone,,43.847892,-79.00124,,,0,,,1
2313:1,2313,Bayly Westbound @ Salem,,43.846629,-79.007018,,,0,,,2
2314:1,2314,Bayly Westbound @ Porte,,43.846159,-79.009124,,,0,,,1
2315:1,2315,Bayly Westbound @ Burcher,,43.845625,-79.01148499999998,,,0,,,1
2316:1,2316,Bayly Westbound @ Harwood,,43.844242,-79.017732,,,0,,,2
2317:1,2317,Bayly Westbound @ Kitney,,43.843703,-79.020186,,,0,,,1
2318:1,2318,Bayly Westbound @ Woodchester,,43.843281,-79.021975,,,0,,,1
2319:1,2319,Bayly Westbound @ Monarch,,43.842681,-79.024703,,,0,,,1
2320:1,2320,Bayly Westbound @ Mackenzie,,43.8419865,-79.0278284,,,0,,,1
2321:1,2321,Bayly Westbound @ Finley,,43.84141000000001,-79.030484,,,0,,,1
2322:1,2322,Bayly Westbound @ Westney,,43.840417,-79.035039,,,0,,,1
2323:1,2323,Bayly Westbound @ Squires Beach,,43.83537,-79.05759999999998,,,0,,,2
2324:1,2324,Bayly Westbound @ Church,,43.83755071,-79.04777984,,,0,,,1
2326:1,2326,Hunt Westbound @ Mills,,43.846722,-79.023348,,,0,,,1
2327:1,2327,Hunt Westbound @ Dowty,,43.845931,-79.026917,,,0,,,1
2328:1,2328,Fairall Westbound @ Dowty,,43.848622,-79.030842,,,0,,,1
2329:1,2329,Fairall Westbound @ McMaster,,43.847858,-79.034274,,,0,,,1
2330:1,2330,Fairall Westbound @ Westney,,43.84696000000001,-79.038432,,,0,,,1
2331:1,2331,Fairall Eastbound @ Westney (East side stop),,43.8469093,-79.0381401,,,0,,,1
2332:1,2332,Fairall Eastbound @ McMaster,,43.847784,-79.034135,,,0,,,1
2333:1,2333,Fairall Eastbound @ Dowty,,43.8488203,-79.0293951,,,0,,,1
2334:1,2334,Hunt Eastbound @ Monarch,,43.84603,-79.026071,,,0,,,1
2335:1,2335,Hunt Eastbound @ Harwood,,43.84718500000001,-79.02085099999998,,,0,,,1
2336:1,2336,Ajax Plaza,,43.84926500000001,-79.021094,,,0,,,2
2351:1,2351,Eastbound @ 87 Station,,43.850729,-79.024869,,,0,,,2
2352:1,2352,Station Eastbound @ Harwood,,43.85141200000001,-79.021846,,,0,,,2
2398:1,2398,Eastbound @ 43 Taunton,,43.896029,-79.038914,,,0,,,1
2399:1,2399,Taunton Eastbound @ Middlecote,,43.896906,-79.034803,,,0,,,1
2400:1,2400,Taunton Eastbound @ Salem,,43.897731,-79.0312632,,,0,,,1
2401:1,2401,Taunton Eastbound @ Gillett,,43.8993868,-79.0245374,,,0,,,2
2402:1,2402,Taunton Eastbound @ Warner,,43.901133,-79.017127,,,0,,,2
2403:1,2403,Taunton Eastbound @ Audley,,43.902546,-79.011461,,,0,,,1
2404:1,2404,Taunton Westbound @ Audley,,43.90267,-79.011878,,,0,,,2
2405:1,2405,Taunton Westbound @ Warner,,43.9015153,-79.01660699999998,,,0,,,2
2406:1,2406,Taunton Westbound @ Salem,,43.8979268,-79.0315523,,,0,,,2
2407:1,2407,Taunton Westbound @ Middlecote,,43.8972765,-79.0342846,,,0,,,2
2422:1,2422,Toronto Northbound @ Brock Street (North side stop),,44.109303,-79.122461,,,0,,,1
2428:1,2428,Reach Eastbound @ East,,44.104907,-79.113612,,,0,,,1
2429:1,2429,Reach Eastbound @ Hamilton,,44.104684,-79.111752,,,0,,,1
2430:1,2430,Reach Eastbound @ Testa,,44.104464,-79.109229,,,0,,,1
2431:1,2431,Reach Northbound @ Coral Creek,,44.104497,-79.108006,,,0,,,1
2433:1,2433,Franklin Northbound @ Parkside,,44.106913,-79.115832,,,0,,,1
2434:1,2434,Franklin Northbound @ Brock Street,,44.109968,-79.117222,,,0,,,2
2441:1,2441,Franklin Southbound @ Brock Street,,44.10972000000001,-79.11723499999998,,,0,,,1
2442:1,2442,Southbound @ 72 Franklin,,44.107774,-79.116345,,,0,,,1
2443:1,2443,Brock Street Westbound @ Main Street,,44.109472,-79.12032499999998,,,0,,,1
2444:1,2444,Reach Westbound @ Marsh Hill (Epsom),,44.093705,-79.035732,,,0,,,2
2445:1,2445,Reach Eastbound @ Marsh Hill (Epsom),,44.093585,-79.035966,,,0,,,2
2446:1,2446,Reach Eastbound @ Reach Industrial Park,,44.104969,-78.985241,,,0,,,2
2447:1,2447,Reach Westbound @ Reach Industrial Park,,44.105095,-78.98500799999998,,,0,,,2
2448:1,2448,Reach Eastbound @ North Port,,44.106497,-78.978346,,,0,,,2
2449:1,2449,Reach Westbound @ North Port,,44.106635,-78.977997,,,0,,,2
2450:1,2450,Reach Eastbound @ Sherrington,,44.110073,-78.961905,,,0,,,1
2451:1,2451,Reach Westbound @ Sherrington,,44.110199,-78.961945,,,0,,,2
2452:1,2452,Reach Eastbound @ Old Simcoe,,44.11102600000001,-78.957515,,,0,,,2
2453:1,2453,Reach Eastbound @ Simcoe,,44.1122,-78.951756,,,0,,,1
2454:1,2454,Reach Westbound @ Simcoe,,44.112316,-78.951684,,,0,,,2
2455:1,2455,Reach Westbound @ Old Simcoe,,44.111107,-78.957656,,,0,,,2
2456:1,2456,Simcoe Northbound @ Steepleview (Columbus),,43.979501,-78.91001199999998,,,0,,,2
2457:1,2457,Simcoe Northbound @ Columbus Road (Columbus),,43.982318,-78.911266,,,0,,,2
2458:1,2458,Simcoe Southbound @ Columbus Road (Columbus),,43.982203,-78.911351,,,0,,,2
2459:1,2459,Simcoe Southbound @ Westview (Columbus),,43.979472,-78.910124,,,0,,,2
2460:1,2460,Simcoe Northbound @ Howden,,43.999617,-78.91910799999998,,,0,,,2
2461:1,2461,Simcoe Southbound @ Howden,,43.999914,-78.919399,,,0,,,2
2462:1,2462,Simcoe Northbound @ Raglan Road (Raglan),,44.017775,-78.925672,,,0,,,2
2463:1,2463,Simcoe Northbound @ Snow Ridge,,44.024868,-78.924563,,,0,,,2
2464:1,2464,Simcoe Southbound @ Snow Ridge,,44.024706,-78.92478199999998,,,0,,,2
2465:1,2465,Simcoe Southbound @ Raglan Road (Raglan),,44.018378,-78.925944,,,0,,,2
2466:1,2466,Simcoe Northbound @ Shirley (Shirley Road Commuter Parking),,44.04992,-78.923906,,,0,,,2
2467:1,2467,Simcoe Southbound @ Shirley (Shirley Road Commuter Parking),,44.049755,-78.924116,,,0,,,2
2469:1,2469,Simcoe Southbound @ Scugog Line 4,,44.074635,-78.9362,,,0,,,2
2473:1,2473,King Westbound @ Old Simcoe,,44.08405984,-78.95354168,,,0,,,2
2474:1,2474,Old Simcoe Northbound @ Barber,,44.086597,-78.954981,,,0,,,2
2475:1,2475,Old Simcoe Northbound @ Jeffrey,,44.089871,-78.955184,,,0,,,1
2476:1,2476,Old Simcoe Southbound @ Jeffrey,,44.090628,-78.955344,,,0,,,2
2477:1,2477,Old Simcoe Southbound @ Barber,,44.086558,-78.95506899999998,,,0,,,2
2478:1,2478,King Eastbound @ Old Simcoe,,44.083946,-78.953711,,,0,,,1
2491:1,2491,Curts Eastbound @ Port Perry Terminal,,44.10227900000001,-78.938356,,,0,,,1
2500:1,2500,Simcoe Southbound @ Kellett,,44.110346,-78.950117,,,0,,,1
2501:1,2501,Simcoe Southbound @ Balsam,,44.107337,-78.94889,,,0,,,1
2503:1,2503,Scugog  Westbound @ Simcoe,,44.099916,-78.945102,,,0,,,2
2504:1,2504,Scugog Westbound @ Arrow,,44.099451,-78.947519,,,0,,,2
2505:1,2505,Scugog Westbound @ Ottawa,,44.09877,-78.950789,,,0,,,1
2506:1,2506,Scugog Westbound @ Old Simcoe,,44.097862,-78.955178,,,0,,,2
2507:1,2507,Highway 7A Southbound @ Scugog Line 6,,44.096353,-78.960274,,,0,,,2
2508:1,2508,Highway 7A Northbound @ Scugog,,44.095613,-78.960992,,,0,,,2
2509:1,2509,Scugog Eastbound @ Old Simcoe,,44.09774800000001,-78.955305,,,0,,,2
2510:1,2510,Scugog Eastbound @ Ottawa,,44.098585,-78.951258,,,0,,,2
2511:1,2511,Scugog Eastbound @ Arrow,,44.09931000000001,-78.947712,,,0,,,2
2512:1,2512,Scugog Eastbound @ Simcoe,,44.099892,-78.944804,,,0,,,2
2514:1,2514,Simcoe Northbound @ Balsam,,44.107457,-78.948792,,,0,,,2
2515:1,2515,Simcoe Northbound @ Beech,,44.110223,-78.95,,,0,,,2
2516:1,2516,Old Simcoe Southbound @ Scugog Street,,44.096969,-78.95578399999998,,,0,,,2
2517:1,2517,Old Simcoe Southbound @ Victoria,,44.093814,-78.955567,,,0,,,2
2549:1,2549,Pickering Station,,43.831147,-79.084237,,,0,,,1
2569:1,2569,Ajax Station,,43.847679,-79.041346,,,0,,,1
2574:1,2574,Fairall Eastbound @ Westney (West side stop),,43.846447,-79.039484,,,0,,,1
2576:1,2576,Whitby Station,,43.865496,-78.93794,,,0,,,1
2585:1,2585,Oshawa Station,,43.87066200000001,-78.886365,,,0,,,1
2595:1,2595,Oshawa Centre Terminal,,43.88916900000001,-78.877279,,,0,,,1
2603:1,2603,King Eastbound @ Centre,,43.89714,-78.86528199999998,,,0,,,2
2604:1,2604,Gibb Westbound @ Centre,,43.89014370000001,-78.8622203,,,0,,,1
2605:1,2605,Gibb Eastbound @ Centre,,43.890197,-78.861086,,,0,,,2
260:1,260,Consumers Eastbound @ Paisley,,43.867601,-78.93573499999998,,,0,,,2
261:1,261,Eastbound @ 187 Consumers,,43.867911,-78.93228,,,0,,,1
262:1,262,Westbound @ 1716 Victoria,,43.86729177,-78.900295,,,0,,,1
265:1,265,Wentworth Westbound @ Boundary (West side stop),,43.86166688,-78.88778,,,0,,,2
266:1,266,Wentworth Westbound @ Forbes,,43.860563,-78.89276099999998,,,0,,,2
267:1,267,Wentworth Westbound @ Scotia,,43.859508,-78.897536,,,0,,,2
268:1,268,Wentworth Westbound @ Thickson,,43.859031,-78.899876,,,0,,,2
269:1,269,Thickson Northbound @ Tricont,,43.86266,-78.902289,,,0,,,2
2704:1,2704,Taunton Westbound @ Coronation,,43.908291,-78.987629,,,0,,,2
2705:1,2705,Taunton Eastbound @ Coronation,,43.908217,-78.986958,,,0,,,2
2707:1,2707,Taunton Westbound @ Baycliff,,43.910014,-78.980509,,,0,,,2
2708:1,2708,Taunton Westbound @ Gillett,,43.89974380000001,-79.0239972,,,0,,,2
2709:1,2709,Bloor Eastbound @ Ritson,,43.882318,-78.846976,,,0,,,2
270:1,270,Thickson Northbound @ Victoria,,43.865547,-78.903392,,,0,,,2
2712:1,2712,Simcoe Northbound @ Conlin,,43.947746,-78.895601,,,0,,,1
2713:1,2713,Taunton Westbound @ Fallingbrook,,43.91836021000001,-78.944325,,,0,,,1
2718:1,2718,Bayly Eastbound @ Boone,,43.847742,-79.001192,,,0,,,1
2725:1,2725,Hogarth Eastbound @ Pine Grove,,43.816874,-79.148704,,,0,,,1
2727:1,2727,Strouds Westbound @ Spruce Hill,,43.831796,-79.115049,,,0,,,1
2728:1,2728,Taunton Eastbound @ Grainger,,43.894509,-79.045472,,,0,,,2
2729:1,2729,Taunton Eastbound @ Harwood,,43.895089,-79.042882,,,0,,,1
272:1,272,Thickson Northbound @ Burns,,43.877058,-78.908542,,,0,,,2
2730:1,2730,Taunton Westbound @ Harwood,,43.8952726,-79.0431068,,,0,,,2
2733:1,2733,Simcoe Northbound @ Greenway,,44.09167138,-78.94143037,,,0,,,1
2734:1,2734,Simcoe Northbound @ Vanedward,,44.09453,-78.942667,,,0,,,1
2735:1,2735,Union Southbound @ Major,,44.094332,-78.947175,,,0,,,2
2737:1,2737,Union Southbound @ Robin Trail,,44.091129,-78.94855099999998,,,0,,,2
2739:1,2739,King Westbound @ Union,,44.08454,-78.95111799999998,,,0,,,2
2740:1,2740,Union Northbound @ Hurd,,44.085418,-78.9509,,,0,,,1
2741:1,2741,Union Northbound @ Josephine,,44.09017,-78.948845,,,0,,,1
2743:1,2743,Union Northbound @ Major,,44.094297,-78.947064,,,0,,,1
2744:1,2744,Simcoe Southbound @ Vanedward,,44.094828,-78.94307499999998,,,0,,,1
2745:1,2745,Simcoe Southbound @ Greenway,,44.09201925,-78.94179818,,,0,,,1
2749:1,2749,Northbound @ 15929 Simcoe St,,44.111357,-78.950491,,,0,,,1
274:1,274,Thickson Northbound @ Nichol,,43.88211600000001,-78.910842,,,0,,,2
2750:1,2750,Reach Westbound @ Carlan,,44.111917,-78.953783,,,0,,,2
2753:1,2753,Reach Eastbound @ Carlan,,44.111683,-78.954558,,,0,,,2
275:1,275,Northbound @ 35 Thickson,,43.884288,-78.911801,,,0,,,1
276:1,276,Thickson Northbound @ Dundas,,43.88712300000001,-78.912944,,,0,,,1
277:1,277,Thickson Northbound @ Crawforth,,43.88843361,-78.91350799999998,,,0,,,1
278:1,278,Thickson Northbound @ Pine Hills,,43.89153000000001,-78.914804,,,0,,,1
279:1,279,Thickson Northbound @ Dalton,,43.893721,-78.915756,,,0,,,1
281:1,281,Thickson Northbound @ Canadian Oaks,,43.899509,-78.918233,,,0,,,1
282:1,282,Thickson Northbound @ William Stephenson,,43.9018064,-78.91921739999998,,,0,,,1
283:1,283,Thickson Northbound @ Rossland,,43.903729,-78.92006499999998,,,0,,,1
293:1,293,Garrard Southbound @ Griffen,,43.92320500000001,-78.917972,,,0,,,1
294:1,294,Garrard Southbound @ Shore,,43.921498,-78.917227,,,0,,,1
295:1,295,Garrard Southbound @ Dryden,,43.917352,-78.91538799999998,,,0,,,1
3002:1,3002,Waterford Eastbound @ Senator,,43.82055109001007,-79.14290114874986,,,0,,,2
3004:1,3004,Waterford Eastbound @ Forestview,,43.820443,-79.140253,,,0,,,1
3029:1,3029,Kingston Eastbound @ Westney Heights Plaza,,43.858316,-79.038196,,,0,,,2
3038:1,3038,Salem Southbound @ Thackery,,43.88831017,-79.026786,,,0,,,2
3039:1,3039,Salem Northbound @ Gillett,,43.888491,-79.026599,,,0,,,2
3041:1,3041,Salem Northbound @ Harper Hill,,43.88440700000001,-79.021938,,,0,,,2
3042:1,3042,Salem Southbound @ Rossland,,43.88210500000001,-79.019056,,,0,,,2
3043:1,3043,Salem Northbound @ Rossland,,43.881461,-79.018414,,,0,,,2
3048:1,3048,Pickering Beach Northbound @ Bayly,,43.846466,-79.005762,,,0,,,1
3049:1,3049,Salem Northbound @ Lord,,43.849311,-79.006791,,,0,,,2
3052:1,3052,Salem Southbound @ Lord,,43.849663,-79.007221,,,0,,,2
3053:1,3053,Salem Southbound @ Bayly,,43.84686809732681,-79.00620876374902,,,0,,,2
3054:1,3054,Pickering Beach Southbound @ Michaelman,,43.84421074545585,-79.00602185445216,,,0,,,2
3055:1,3055,Pickering Beach Southbound @ Hickman,,43.842824,-79.00649,,,0,,,2
3056:1,3056,Pickering Beach Southbound @ Emperor,,43.840676,-79.006118,,,0,,,1
3057:1,3057,Pickering Beach Southbound @ Foord,,43.837128,-79.004638,,,0,,,2
3058:1,3058,Southbound @ 722 Pickering Beach,,43.834673,-79.003576,,,0,,,2
3059:1,3059,Pickering Beach Southbound @ Rollo,,43.831646,-79.00228199999998,,,0,,,1
3060:1,3060,Eastbound @ 509 Bayly,,43.8495633,-78.9927232,,,0,,,2
3061:1,3061,Bayly Eastbound @ Audley,,43.850332,-78.989176,,,0,,,1
3074:1,3074,Lake Driveway Westbound @ Walker,,43.82928325297049,-79.0317767202293,,,0,,,2
3075:1,3075,Lake Driveway Southbound @ Vale,,43.826381,-79.033125,,,0,,,2
3076:1,3076,Lake Driveway Southbound @ Hawkins,,43.823696,-79.034343,,,0,,,2
3077:1,3077,Parkes Northbound @ Varley,,43.820175,-79.030201,,,0,,,2
3078:1,3078,Parkes Eastbound @ Finley,,43.8232,-79.026328,,,0,,,2
3079:1,3079,Lake Driveway Westbound @ Finley,,43.819471,-79.018865,,,0,,,2
3080:1,3080,Finley Northbound @ Burden,,43.821367,-79.022861,,,0,,,2
3081:1,3081,Parkes Westbound @ Farrow,,43.822975,-79.02708699999998,,,0,,,2
3082:1,3082,Parkes Southbound @ Lake Driveway,,43.820159,-79.030493,,,0,,,2
3083:1,3083,Harwood Southbound @ Windebanks,,43.828548,-79.014208,,,0,,,2
3084:1,3084,Clover Ridge Eastbound @ Lawrie,,43.826381,-79.010986,,,0,,,2
3085:1,3085,Clover Ridge Eastbound @ Crawford,,43.8271,-79.00769,,,0,,,2
3086:1,3086,Clover Ridge Eastbound @ Clarke,,43.829813,-79.00429099999998,,,0,,,2
3096:1,3096,Northbound @ 574 Monarch,,43.836801,-79.022498,,,0,,,2
3097:1,3097,Monarch Northbound @ Centennial,,43.839393,-79.023607,,,0,,,2
309:1,309,Thickson Northbound @ Manning,,43.8948175,-78.91623869999998,,,0,,,1
30:1,30,Garden Southbound @ Rossland (Durham Region Headquarters),,43.898752,-78.93967,,,0,,,1
3105:1,3105,Victoria Eastbound @ Bayside Gate,,43.858814,-78.950286,,,0,,,2
3106:1,3106,Thickson Northbound @ Fieldnest,,43.911379,-78.92341399999998,,,0,,,1
3107:1,3107,Thickson Northbound @ Dryden,,43.913835,-78.924456,,,0,,,1
3109:1,3109,Ritson Southbound @ Bloor,,43.883063,-78.84632,,,0,,,2
310:1,310,Thickson Southbound @ Dalton,,43.893474,-78.915889,,,0,,,1
3110:1,3110,Ritson Southbound @ Conant,,43.87956,-78.844802,,,0,,,1
3111:1,3111,Ritson Southbound @ Wolfe,,43.877689,-78.844014,,,0,,,1
3113:1,3113,Colonel Sam Westbound @ Farewell,,43.87933000000001,-78.82801,,,0,,,2
3114:1,3114,Farewell Northbound @ Raleigh,,43.882025,-78.82937099999998,,,0,,,2
3115:1,3115,Southbound @ 206 Ritson,,43.9039406,-78.8557913,,,0,,,2
3116:1,3116,Northbound @ 205 Ritson,,43.904205,-78.855635,,,0,,,2
3117:1,3117,Ritson Southbound @ Bond,,43.901042,-78.854433,,,0,,,2
3118:1,3118,Ritson Northbound @ Richmond,,43.901499,-78.854417,,,0,,,2
311:1,311,Thickson Southbound @ Pine Hills,,43.89187877,-78.915149,,,0,,,1
3123:1,3123,Wilson Southbound @ Adelaide,,43.909548,-78.847296,,,0,,,2
3125:1,3125,Wilson Southbound @ Hillcroft,,43.91355036312938,-78.84907667343516,,,0,,,2
3126:1,3126,Wilson Northbound @ Hillcroft,,43.913236,-78.848778,,,0,,,1
3127:1,3127,Britannia Eastbound @ Stepplechase,,43.956275,-78.896619,,,0,,,1
3128:1,3128,Britannia Eastbound @ Bridle,,43.955878,-78.893451,,,0,,,2
312:1,312,Thickson Southbound @ Crawforth,,43.88874243,-78.91385,,,0,,,1
3131:1,3131,Conlin Eastbound @ Wilson,,43.954353,-78.867182,,,0,,,2
3132:1,3132,Conlin Eastbound @ Harmony,,43.95665300000001,-78.857426,,,0,,,2
3133:1,3133,Grandview Southbound @ Woodstream,,43.95607300000001,-78.846023,,,0,,,2
3134:1,3134,Grandview Southbound @ Salmers,,43.95001100000001,-78.843457,,,0,,,2
3135:1,3135,Grandview Northbound @ Salmers,,43.949878,-78.843025,,,0,,,2
3136:1,3136,Grandview Northbound @ Woodstream,,43.955852,-78.845803,,,0,,,2
3137:1,3137,Conlin Westbound @ Harmony,,43.956986,-78.856803,,,0,,,2
3138:1,3138,Conlin Westbound @ Wilson,,43.95455900000001,-78.86666,,,0,,,2
313:1,313,Thickson Southbound @ Dundas,,43.88721867000001,-78.913195,,,0,,,1
314:1,314,Southbound @ 44 Thickson,,43.884433,-78.912122,,,0,,,1
315:1,315,Thickson Southbound @ Nichol,,43.882767,-78.911373,,,0,,,1
3165:1,3165,Green Southbound @ South Of Highway 2,,43.90821300000001,-78.711662,,,0,,,2
316:1,316,Thickson Southbound @ Long,,43.879377,-78.909859,,,0,,,1
3172:1,3172,Green Southbound @ Boswell,,43.905223,-78.710404,,,0,,,1
3178:1,3178,Wilson Northbound @ Attersley,,43.925753,-78.854111,,,0,,,1
3179:1,3179,Wilson Southbound @ Attersley,,43.926015,-78.854372,,,0,,,1
317:1,317,Thickson Southbound @ Burns,,43.87764539,-78.908946,,,0,,,1
318:1,318,Thickson Southbound @ Tricont,,43.86262,-78.902447,,,0,,,2
319:1,319,Wentworth Eastbound @ Thickson,,43.858818,-78.899945,,,0,,,2
31:1,31,Garden Southbound @ Bassett,,43.896968,-78.938877,,,0,,,1
320:1,320,Wentworth Eastbound @ McEwen,,43.859341,-78.897457,,,0,,,2
321:1,321,Consumers Westbound @ Thickson,,43.8723866,-78.9078341,,,0,,,1
3224:1,3224,Franklin Northbound @ Reach,,44.10559400000001,-79.115221,,,0,,,1
3227:1,3227,Gibb Westbound @ Nassau,,43.889102,-78.866981,,,0,,,2
3228:1,3228,Gibb Eastbound @ Nassau,,43.888873,-78.8675047,,,0,,,2
322:1,322,Consumers Westbound @ Sunray,,43.870879,-78.91304599999998,,,0,,,1
3231:1,3231,Harwood Northbound @ Dreyer,,43.830787,-79.014381,,,0,,,2
323:1,323,Consumers Westbound @ Hopkins,,43.870194,-78.915887,,,0,,,2
324:1,324,Westbound @ 106 Consumers,,43.869763,-78.918451,,,0,,,2
3253:1,3253,Clover Ridge Eastbound @ Andrea,,43.82622,-79.012367,,,0,,,1
325:1,325,Westbound @ 112 Consumers,,43.869403,-78.920834,,,0,,,2
3260:1,3260,Parkes Westbound @ Milner,,43.821355,-79.028417,,,0,,,2
3261:1,3261,Parkes Eastbound @ Farrow,,43.821614,-79.02805499999998,,,0,,,2
3262:1,3262,Dean Westbound @ Wilson,,43.887869,-78.83800599999998,,,0,,,2
3263:1,3263,Dean Northbound @ Sedan,,43.888306,-78.841289,,,0,,,2
3265:1,3265,Salem Northbound @ Achilles,,43.85314000000001,-79.009521,,,0,,,2
3266:1,3266,Salem Southbound @ Achilles,,43.85275219675408,-79.00961840932924,,,0,,,2
3269:1,3269,Ritson Northbound @ Beatrice (North stop),,43.930147,-78.866844,,,0,,,2
326:1,326,Consumers Westbound @ Cannon,,43.8689872,-78.9237719,,,0,,,1
3270:1,3270,Ritson Northbound @ Pentland,,43.93206,-78.867734,,,0,,,1
3271:1,3271,Ritson Northbound @ Taunton,,43.934727,-78.868826,,,0,,,1
3279:1,3279,Prince Eastbound @ Simpson,,43.909304,-78.674384,,,0,,,1
327:1,327,Consumers Westbound @ Garden,,43.8682969,-78.9286565,,,0,,,1
328:1,328,Westbound @ 180 Consumers,,43.868088,-78.931766,,,0,,,1
3294:1,3294,Rossland Westbound @ Seggar,,43.87746400000001,-79.03796199999998,,,0,,,1
3295:1,3295,Rossland Eastbound @ Seggar,,43.877187,-79.038698,,,0,,,1
3296:1,3296,Rossland Westbound @ Harkins,,43.87213100000001,-79.058372,,,0,,,2
329:1,329,Consumers Westbound @ Paisley,,43.868016,-78.934571,,,0,,,1
3300:1,3300,Highway 7A Westbound @ SmartCentres Port Perry,,44.093711,-78.963408,,,0,,,2
3302:1,3302,Rossland Eastbound @ Woodcock,,43.878356,-79.0334,,,0,,,2
3309:1,3309,Elm Westbound @ Simcoe,,43.890656,-78.8601,,,0,,,2
330:1,330,Consumers Eastbound @ Garden,,43.86800980000001,-78.929162,,,0,,,1
3314:1,3314,Rossland Eastbound @ Harwood,,43.8796476,-79.0275635,,,0,,,1
3315:1,3315,Rossland Westbound @ Harwood,,43.880023,-79.026765,,,0,,,1
3316:1,3316,Glenabbey Eastbound @ Bruntsfield,,43.894594,-78.802985,,,0,,,1
3322:1,3322,Westney Southbound @ Kingston (South side stop),,43.8568676,-79.0418045,,,0,,,1
3323:1,3323,Liverpool Southbound @ Tatra,,43.827539,-79.086882,,,0,,,2
3327:1,3327,Harwood Plaza Eastbound,,43.84636600000001,-79.0210798,,,0,,,2
3328:1,3328,Kitney @ Lakeridge Health Ajax Pickering,,43.836622,-79.01886399999998,,,0,,,2
3329:1,3329,Southbound @ 40 Kitney,,43.841898,-79.020169,,,0,,,1
332:1,332,Consumers Eastbound @ Cannon,,43.868802,-78.924038,,,0,,,1
3330:1,3330,Ajax Community Centre,,43.839531,-79.020066,,,0,,,2
3332:1,3332,Harwood Plaza Westbound,,43.8464652,-79.0210868,,,0,,,2
3339:1,3339,Simcoe Southbound @ Queen,,44.10364002858971,-78.94730861476204,,,0,,,2
333:1,333,Eastbound @ 111 Consumers,,43.869293,-78.92065599999998,,,0,,,1
3340:1,3340,Simcoe Northbound @ Queen,,44.10351827820833,-78.94709667801564,,,0,,,1
3341:1,3341,Wilson Northbound @ Terrace,,43.9226613,-78.852739,,,0,,,2
3342:1,3342,Wilson Southbound @ Terrace,,43.922588,-78.85286499999998,,,0,,,2
3343:1,3343,Wilson Northbound @ Tiffany,,43.929131,-78.8556,,,0,,,2
3344:1,3344,Wilson Southbound @ Tiffany,,43.92931,-78.855818,,,0,,,2
3346:1,3346,Green Northbound @ Highway 2 (South side stop),,43.9087386,-78.711744,,,0,,,2
334:1,334,Eastbound @ 107 Consumers,,43.86960100000001,-78.91860699999998,,,0,,,1
335:1,335,Consumers Eastbound @ Sunray,,43.87071339196998,-78.9128184418275,,,0,,,1
3366:1,3366,Britannia Westbound @ Kentucky Derby,,43.95470000000001,-78.905928,,,0,,,2
3367:1,3367,Brock Road Southbound @ Major Oaks,,43.85522000000001,-79.077861,,,0,,,2
3368:1,3368,Brock Road Southbound @ Dersan,,43.874489,-79.085714,,,0,,,1
336:1,336,Eastbound @ 23 Consumers,,43.871596,-78.9098154,,,0,,,1
337:1,337,Stellar Eastbound @ Thickson,,43.872706,-78.905592,,,0,,,1
339:1,339,Durham College Whitby Campus,,43.871161,-78.900059,,,0,,,2
3409:1,3409,Dryden Westbound @ Thickson,,43.9143679,-78.92400139999998,,,0,,,1
340:1,340,Westbound @ 946 Champlain,,43.873198,-78.889539,,,0,,,2
3410:1,3410,Thickson Southbound @ Winterberry,,43.908294,-78.922324,,,0,,,2
3411:1,3411,Thickson Southbound @ Rossland,,43.903673,-78.920314,,,0,,,2
3412:1,3412,Thickson Southbound @ William Stephenson,,43.901398,-78.91931099999998,,,0,,,2
3413:1,3413,Thickson Southbound @ Marta,,43.8994523,-78.9184387,,,0,,,2
3415:1,3415,Thickson Southbound @ Manning,,43.894635,-78.91639499999998,,,0,,,2
3420:1,3420,Dryden Westbound @ Bakerville,,43.91571,-78.91904,,,0,,,2
3421:1,3421,Dryden Westbound @ Waller,,43.91489,-78.92186,,,0,,,2
3422:1,3422,Britannia Westbound @ Thoroughbred,,43.9557,-78.90185,,,0,,,2
342:1,342,Stellar Westbound @ Thickson,,43.87293600000001,-78.905268,,,0,,,1
3430:1,3430,Rossland Eastbound @ Church,,43.8709498,-79.06307049999998,,,0,,,2
3431:1,3431,Rossland Eastbound @ Shell,,43.870787,-79.068303,,,0,,,2
3432:1,3432,Rossland Westbound @ Shell,,43.870936,-79.068386,,,0,,,2
3433:1,3433,Rossland Westbound @ Stannardville,,43.870491,-79.070806,,,0,,,2
3434:1,3434,Rossland Eastbound @ Stannardville,,43.870202,-79.07128,,,0,,,2
3435:1,3435,Rossland Eastbound @ Southcott,,43.868324,-79.079724,,,0,,,1
3510:1,3510,Rossland Westbound @ Southcott,,43.868662,-79.079043,,,0,,,2
3517:1,3517,Harmony Northbound @ Greenhill,,43.95118200000001,-78.854544,,,0,,,2
3518:1,3518,Harmony Southbound @ Greenhill,,43.951873,-78.855046,,,0,,,2
3531:1,3531,Taunton Westbound @ Mary,,43.93451980299271,-78.87242871207518,,,0,,,2
3532:1,3532,Taunton Eastbound @ Mary,,43.93408,-78.87324,,,0,,,2
3533:1,3533,Taunton Westbound @ Simcoe,,43.93288,-78.87956,,,0,,,2
3534:1,3534,Taunton Eastbound @ Simcoe,,43.93301000000001,-78.87799,,,0,,,2
3535:1,3535,Britannia Westbound @ Simcoe,,43.95638712467473,-78.89864596744778,,,0,,,2
3537:1,3537,Britannia Westbound @ Steeplechase,,43.95653,-78.89646999999998,,,0,,,2
3542:1,3542,Simcoe Southbound @ Conlin,,43.94919,-78.896877,,,0,,,2
3543:1,3543,Carnwith Westbound @ Bayern,,43.96223,-78.9725,,,0,,,2
3544:1,3544,Carnwith Westbound @ Darius Harns,,43.96165,-78.97506,,,0,,,2
3545:1,3545,Carnwith Westbound @ Montgomery,,43.9624,-78.96784,,,0,,,2
3546:1,3546,Carnwith Westbound @ Way,,43.96306,-78.9646,,,0,,,1
3547:1,3547,Carnwith Westbound @ Braddock,,43.96495,-78.96192,,,0,,,2
3548:1,3548,Carnwith Westbound @ Baldwin,,43.9668,-78.95911,,,0,,,2
3549:1,3549,Baldwin Southbound @ Winchester,,43.95347000000001,-78.9624,,,0,,,2
3550:1,3550,Rossland Westbound @ Church,,43.87116000000001,-79.06323,,,0,,,2
3551:1,3551,Ritson Southbound @ Luple,,43.94279,-78.87257,,,0,,,2
3552:1,3552,Ritson Northbound @ Luple,,43.94296,-78.87249,,,0,,,2
3553:1,3553,Courtice Northbound @ Highway 2,,43.91268,-78.77812,,,0,,,1
3556:1,3556,Simcoe Southbound @ Britannia,,43.95627000000001,-78.89999,,,0,,,2
3557:1,3557,Simcoe Northbound @ Britannia,,43.95583,-78.89949,,,0,,,2
3560:1,3560,Brock Road Northbound @ Finch,,43.85045080317794,-79.07553726765236,,,0,,,2
3562:1,3562,Wentworth Westbound @ Wilson,,43.87795,-78.832953,,,0,,,2
3563:1,3563,Wentworth Westbound @ Nelson,,43.876669,-78.837602,,,0,,,2
3564:1,3564,Wentworth Eastbound @ Nelson,,43.876379,-78.838196,,,0,,,2
3565:1,3565,Wentworth Westbound @ Ritson,,43.875698,-78.84196799999998,,,0,,,2
3566:1,3566,Wentworth Eastbound @ Ritson,,43.87551,-78.841977,,,0,,,2
3567:1,3567,Simcoe Southbound @ Erie,,43.878204,-78.853061,,,0,,,2
3569:1,3569,Simcoe Southbound @ Whiting,,43.876637,-78.849958,,,0,,,2
3570:1,3570,Simcoe Southbound @ Wentworth,,43.873879,-78.84462499999998,,,0,,,2
3572:1,3572,Zents Westbound @ Tillings,,43.878735,-79.092628,,,0,,,2
3573:1,3573,Tillings Southbound @ Scenic Lane,,43.874998,-79.09144999999998,,,0,,,2
3580:1,3580,Britannia Westbound @ Windfields Farms,,43.9537361,-78.9106833,,,0,,,2
3586:1,3586,Park Southbound @ Hillside,,43.882051,-78.868142,,,0,,,2
3587:1,3587,Park Northbound @ Hillside,,43.881571,-78.868386,,,0,,,2
3588:1,3588,Ontario Shores (East Entrance),,43.849206,-78.944599,,,0,,,1
3589:1,3589,Centennial Circle,,43.787494,-79.190831,,,0,,,1
3590:1,3590,Kingston Westbound @ Delta,,43.820127,-79.114142,,,0,,,1
3591:1,3591,Windfields Farm Eastbound @ Thoroughbred,,43.962738,-78.90513,,,0,,,2
3600:1,3600,Windfields Farm Eastbound @ Kentucky Derby,,43.961779,-78.909473,,,0,,,2
3601:1,3601,Windfields Farm Northbound @ Bandsman,,43.959762,-78.914635,,,0,,,2
3602:1,3602,Windfields Farm Northbound @ Equestrian,,43.956693,-78.913442,,,0,,,2
3608:1,3608,Simcoe Northbound @ Founders,,43.94666800000001,-78.894075,,,0,,,2
36151,3615,Lakeridge Health Ajax Pickering East Entrance,,43.837188,-79.016527,,,0,,,1
36171,3617,Thickson Northbound @ Winchester,,43.958227,-78.94370499999998,,,0,,,2
36181,3618,Thickson Northbound @ Blackfriar,,43.961855,-78.945277,,,0,,,2
36251,3625,Baldwin Southbound @ North,,43.964478,-78.957925,,,0,,,2
36261,3626,Baldwin Southbound @ Colston,,43.96023000000001,-78.959512,,,0,,,2
36271,3627,Baldwin Southbound @ Cassels,,43.955959,-78.96136799999998,,,0,,,2
362:1,362,Taunton Westbound @ Garrard,,43.9239959,-78.9190382,,,0,,,1
36301,3630,Winchester Eastbound @ Chelmsford ,,43.95386,-78.95961,,,0,,,2
36311,3631,Winchester Eastbound @ Simcoe,,43.95499312814056,-78.95457880764275,,,0,,,2
36321,3632,Winchester Eastbound @ St. Thomas,,43.9554,-78.95263,,,0,,,2
36331,3633,Simcoe Northbound @ Windfields Farm,,43.963248,-78.902719,,,0,,,2
36351,3635,Brock Eastbound @ Main,,44.109315,-79.12059499999998,,,0,,,2
36361,3636,Harmony Southbound @ Olive,,43.895486,-78.830067,,,0,,,2
36371,3637,Grandview Northbound @ Esterbrook,,43.952059,-78.844133,,,0,,,2
363:1,363,Taunton Westbound @ Tom Edwards,,43.92340655801685,-78.92178700704784,,,0,,,1
364:1,364,Taunton Westbound @ Thickson,,43.922224,-78.92679099999998,,,0,,,1
365:1,365,Taunton Westbound @ Rivers Edge,,43.9212983,-78.9308059,,,0,,,1
366:1,366,Taunton Westbound @ Anderson,,43.919855,-78.937201,,,0,,,1
367:1,367,Westbound @ 440 Taunton,,43.91891420000001,-78.9417529,,,0,,,1
368:1,368,Taunton Westbound @ Garden (West side stop),,43.91729680000001,-78.9492709,,,0,,,1
369:1,369,Taunton Westbound @ McKinney,,43.916453,-78.95299799999998,,,0,,,1
370:1,370,Taunton Westbound @ Valleywood,,43.91508420000001,-78.9592671,,,0,,,1
371:1,371,Taunton Westbound @ Cochrane,,43.913312,-78.966544,,,0,,,1
372:1,372,Taunton Westbound @ Country Lane,,43.910955,-78.976445,,,0,,,2
373:1,373,Taunton Eastbound @ Baycliffe,,43.9096849,-78.9808378,,,0,,,1
374:1,374,Taunton Eastbound @ Country Lane,,43.910527,-78.97723999999998,,,0,,,1
375:1,375,Taunton Eastbound @ Valleywood,,43.914525,-78.960565,,,0,,,1
376:1,376,Taunton Eastbound @ Brock Street,,43.91501800000001,-78.958357,,,0,,,1
377:1,377,Taunton Eastbound @ Riverwood,,43.916349,-78.95252,,,0,,,1
378:1,378,Taunton Eastbound @ Garden,,43.9175701,-78.9468906,,,0,,,1
379:1,379,Eastbound @ 379 Taunton,,43.918238,-78.943813,,,0,,,1
380:1,380,Eastbound @ 435 Taunton,,43.9188963,-78.9406966,,,0,,,1
381:1,381,Taunton Eastbound @ Anderson,,43.9195199,-78.9379152,,,0,,,1
382:1,382,Taunton Eastbound @ Chatterson,,43.92088900000001,-78.931424,,,0,,,1
383:1,383,Taunton Eastbound @ Thickson,,43.921996,-78.926841,,,0,,,1
384:1,384,Taunton Eastbound @ Tom Edwards,,43.923214,-78.921678,,,0,,,1
385:1,385,Taunton Eastbound @ Sebastian,,43.924469,-78.916053,,,0,,,1
386:1,386,Dundas Westbound @ Garrard,,43.888886,-78.902539,,,0,,,1
387:1,387,Dundas Westbound @ Kathleen,,43.887427,-78.90900999999998,,,0,,,1
388:1,388,Dundas Westbound @ Thickson,,43.886286,-78.914145,,,0,,,1
389:1,389,Dundas Westbound @ Bowman,,43.8856414,-78.917045,,,0,,,1
391:1,391,Dundas Westbound @ Anderson,,43.884522,-78.92200099999998,,,0,,,2
393:1,393,Dundas Westbound @ Craydon,,43.882884,-78.929034,,,0,,,2
394:1,394,Dundas Westbound @ Garden,,43.882244,-78.931932,,,0,,,1
396:1,396,Dundas Westbound @ Pine,,43.881084,-78.936954,,,0,,,2
398:1,398,Dundas Westbound @ Brock Street,,43.879998,-78.941772,,,0,,,1
400:1,400,Dundas Westbound @ Euclid,,43.878878,-78.946685,,,0,,,2
401:1,401,Dundas Westbound @ Cochrane,,43.877863,-78.95152,,,0,,,2
404:1,404,Dundas Westbound @ Wellington,,43.8767817,-78.9562584,,,0,,,1
405:1,405,Dundas Westbound @ McQuay,,43.875597,-78.961433,,,0,,,1
406:1,406,Dundas Westbound @ White Oaks,,43.875049,-78.963955,,,0,,,1
410:1,410,Dundas Westbound @ Halls,,43.87132,-78.98098,,,0,,,2
411:1,411,Kingston Westbound @ Lake Ridge,,43.869986,-78.987092,,,0,,,2
412:1,412,Kingston Eastbound @ Lake Ridge,,43.869794,-78.98701,,,0,,,2
413:1,413,Dundas Eastbound @ Halls,,43.87107000000001,-78.98135,,,0,,,2
417:1,417,Dundas Eastbound @ White Oaks,,43.87498,-78.96353499999998,,,0,,,1
418:1,418,Dundas Eastbound @ Jeffery,,43.8753204,-78.9619208,,,0,,,1
419:1,419,Dundas Eastbound @ Wellington,,43.876609,-78.956299,,,0,,,1
422:1,422,Dundas Eastbound @ Annes,,43.877818,-78.950632,,,0,,,1
424:1,424,Dundas Eastbound @ King,,43.87885,-78.946098,,,0,,,1
425:1,425,Dundas Eastbound @ Brock Street,,43.8797255,-78.94241049999998,,,0,,,2
427:1,427,Dundas Eastbound @ Hickory,,43.88066400000001,-78.938157,,,0,,,2
42:1,42,Victoria Westbound @ Brock Street,,43.862229,-78.935434,,,0,,,1
431:1,431,Dundas Eastbound @ Lupin,,43.88225,-78.93106899999998,,,0,,,1
432:1,432,Dundas Eastbound @ Craydon,,43.882846,-78.928486,,,0,,,1
434:1,434,Dundas Eastbound @ Hopkins,,43.884171,-78.922742,,,0,,,2
438:1,438,Nichol Eastbound @ Kirby,,43.885654,-78.903502,,,0,,,1
43:1,43,Victoria Westbound @ Henry,,43.86147716,-78.938856,,,0,,,1
445:1,445,Nichol Westbound @ Kirby,,43.885687,-78.90375299999998,,,0,,,1
446:1,446,Nichol Westbound @ Springwood,,43.884234,-78.90648,,,0,,,1
447:1,447,Nichol Westbound @ Jubilee,,43.882875,-78.909845,,,0,,,1
448:1,448,Nichol Westbound @ Thickson,,43.882509,-78.91251099999998,,,0,,,1
449:1,449,Northbound @ 155 Glen Hill,,43.88398140000001,-78.91447599999998,,,0,,,1
44:1,44,Westbound @ 500 Victoria (Iroquois Park Sports Centre),,43.860846,-78.94172,,,0,,,1
450:1,450,Dundas Eastbound @ Glen Hill,,43.885523,-78.916718,,,0,,,2
451:1,451,Dundas Eastbound @ Thickson,,43.886613,-78.911815,,,0,,,1
452:1,452,Dundas Eastbound @ Kathleen,,43.887178,-78.909422,,,0,,,1
453:1,453,Dundas Eastbound @ Kendalwood,,43.888373,-78.903884,,,0,,,1
454:1,454,Rossland Westbound @ William Davidson,,43.907336,-78.90711,,,0,,,1
455:1,455,Rossland Westbound @ Garrard,,43.906573,-78.910464,,,0,,,2
456:1,456,Rossland Westbound @ Tamarisk,,43.905972,-78.912914,,,0,,,1
457:1,457,Rossland Westbound @ Fencerow,,43.905041,-78.916926,,,0,,,1
458:1,458,Rossland Westbound @ Thickson,,43.904395,-78.91971599999998,,,0,,,1
459:1,459,Rossland Westbound @ Doulton,,43.90280400000001,-78.927091,,,0,,,1
45:1,45,Victoria Westbound @ Montecorte,,43.859114,-78.949545,,,0,,,2
460:1,460,Rossland Westbound @ Anderson,,43.90214933,-78.930008,,,0,,,1
461:1,461,Rossland Westbound @ Bassett,,43.9009439,-78.9353815,,,0,,,1
462:1,462,Rossland Westbound @ Garden (Durham Region Headquarters),,43.899906,-78.939886,,,0,,,1
464:1,464,Rossland Westbound @ Civic Centre Drive,,43.898832,-78.944604,,,0,,,1
465:1,465,Rossland Westbound @ Brock Street,,43.8976792,-78.94921909999998,,,0,,,1
466:1,466,Rossland Westbound @ Harvest,,43.89703234000001,-78.952654,,,0,,,1
467:1,467,Rossland Westbound @ Whitburn,,43.89627,-78.956033,,,0,,,1
468:1,468,Rossland Westbound @ Cochrane,,43.895555,-78.95936399999998,,,0,,,1
469:1,469,Rossland Westbound @ Country Lane,,43.89427381,-78.964817,,,0,,,1
470:1,470,Rossland Westbound @ McQuay,,43.891112,-78.978819,,,0,,,2
471:1,471,Rossland Eastbound @ McQuay,,43.891145,-78.978273,,,0,,,1
472:1,472,Rossland Eastbound @ Country Lane,,43.89412,-78.96458,,,0,,,1
473:1,473,Rossland Eastbound @ Cochrane,,43.895243,-78.959856,,,0,,,1
474:1,474,Rossland Eastbound @ Redoak,,43.89609699482188,-78.95613126641868,,,0,,,2
475:1,475,Rossland Eastbound @ Centre,,43.89687291,-78.952685,,,0,,,1
476:1,476,Rossland Eastbound @ Brock Street,,43.897253,-78.950126,,,0,,,1
477:1,477,Rossland Eastbound @ Civic Centre Drive,,43.898728,-78.944498,,,0,,,1
480:1,480,Rossland Eastbound @ Garden (Durham Region Headquarters),,43.899581,-78.940539,,,0,,,1
481:1,481,Rossland Eastbound @ Bassett,,43.9006827,-78.9356953,,,0,,,1
482:1,482,Rossland Eastbound @ Anderson,,43.902041,-78.929591,,,0,,,1
483:1,483,Rossland Eastbound @ Overlord,,43.90268300000001,-78.926736,,,0,,,1
484:1,484,Rossland Eastbound @ Thickson,,43.9039,-78.92099,,,0,,,1
485:1,485,Rossland Eastbound @ Canadian Oaks,,43.904922,-78.916718,,,0,,,1
486:1,486,Rossland Eastbound @ Orvis,,43.9056983,-78.9135536,,,0,,,1
487:1,487,Rossland Eastbound @ Garrard,,43.906151,-78.911489,,,0,,,2
488:1,488,Rossland Eastbound @ William Davidson,,43.9072446,-78.9069581,,,0,,,1
490:1,490,Baldwin Northbound @ Roybrook,,43.951339,-78.961822,,,0,,,1
491:1,491,Baldwin Northbound @ Winchester,,43.953127,-78.962199,,,0,,,2
497:1,497,Winchester Eastbound @ Anderson,,43.956651,-78.946403,,,0,,,2
505:1,505,Carnwith Westbound @ Thickson,,43.968094,-78.94893399999998,,,0,,,1
506:1,506,Carnwith Westbound @ Croxall,,43.9673515,-78.9528905,,,0,,,1
507:1,507,Carnwith Westbound @ Downey,,43.967171,-78.956391,,,0,,,1
511:1,511,Campbell Eastbound @ Baldwin,,43.95703060000001,-78.9612058,,,0,,,2
512:1,512,Vipond Eastbound @ Montgomery,,43.9569741,-78.9653316,,,0,,,1
513:1,513,Vipond Eastbound @ Ferguson,,43.9560241,-78.9694672,,,0,,,1
514:1,514,Vipond Eastbound @ Sabrina,,43.9550968,-78.97358749999998,,,0,,,1
535:1,535,Baldwin Southbound @ Roybrook,,43.950765,-78.961834,,,0,,,2
539:1,539,Thornton Northbound @ Donegal,,43.885866,-78.890887,,,0,,,1
541:1,541,Thornton Northbound @ Monaghan (Trent University Oshawa),,43.88805,-78.89181499999998,,,0,,,2
542:1,542,Thornton Northbound @ King,,43.8913759,-78.8933631,,,0,,,1
543:1,543,Thornton Northbound @ Castlegrove,,43.89427409000001,-78.894577,,,0,,,1
544:1,544,Northbound @ 185 Thornton,,43.895745,-78.895259,,,0,,,1
559:1,559,Thornton Southbound @ Adelaide (South side stop),,43.89628,-78.895698,,,0,,,1
560:1,560,Thornton Southbound @ Castlegrove,,43.89355735,-78.894515,,,0,,,1
561:1,561,Thornton Southbound @ King,,43.8915529,-78.8936936,,,0,,,1
563:1,563,Thornton Southbound @ Donegal,,43.886025,-78.891096,,,0,,,1
565:1,565,Rossland Eastbound @ Thornton,,43.908465,-78.901066,,,0,,,1
566:1,566,Rossland Eastbound @ Waverly,,43.909431,-78.896541,,,0,,,1
567:1,567,Rossland Eastbound @ Stevenson,,43.910505,-78.891435,,,0,,,1
569:1,569,Rossland Eastbound @ Gibbons,,43.911558,-78.886776,,,0,,,1
570:1,570,Rossland Eastbound @ Park,,43.912237,-78.883718,,,0,,,1
571:1,571,Rossland Eastbound @ Christie,,43.9141525,-78.87504869999998,,,0,,,1
573:1,573,Rossland Eastbound @ Simcoe,,43.9151538,-78.8705428,,,0,,,1
574:1,574,Rossland Eastbound @ Grierson,,43.915824,-78.867671,,,0,,,2
575:1,575,Rossland Eastbound @ Oshawa Boulevard,,43.916479,-78.864739,,,0,,,1
576:1,576,Rossland Eastbound @ Ritson,,43.917332,-78.86071099999998,,,0,,,1
577:1,577,Rossland Eastbound @ Central Park,,43.918411,-78.856553,,,0,,,1
579:1,579,Terrace Northbound @ Mayfair,,43.920654,-78.854051,,,0,,,2
57:1,57,Southbound @ 652 Gordon,,43.851303,-78.940748,,,0,,,2
580:1,580,Terrace Eastbound @ Wilson,,43.922151,-78.853065,,,0,,,2
581:1,581,Rossland Eastbound @ Wilson,,43.919845,-78.85053,,,0,,,2
582:1,582,Rossland Eastbound @ Camelot,,43.92071,-78.84681,,,0,,,1
583:1,583,Rossland Eastbound @ Harmony,,43.92152,-78.843256,,,0,,,1
584:1,584,Harmony Northbound @ Rossland (South side stop),,43.921583,-78.841479,,,0,,,2
585:1,585,Rossland Westbound @ Harmony,,43.9223567,-78.8401886,,,0,,,1
586:1,586,Rossland Westbound @ Gladfern,,43.921478,-78.843935,,,0,,,1
587:1,587,Rossland Westbound @ Attersley,,43.920769,-78.846996,,,0,,,1
588:1,588,Rossland Westbound @ Wilson,,43.91992900000001,-78.850545,,,0,,,1
589:1,589,Terrace Westbound @ Canonberry,,43.922083,-78.85357999999998,,,0,,,1
58:1,58,Ontario Shores (West Entrance),,43.848198,-78.945576,,,0,,,2
590:1,590,Terrace Southbound @ Mayfair,,43.920533,-78.854243,,,0,,,1
591:1,591,Rossland Westbound @ Terrace,,43.918907,-78.854902,,,0,,,1
592:1,592,Rossland Westbound @ Central Park,,43.9184,-78.857043,,,0,,,1
593:1,593,Westbound @ 354 Rossland,,43.917737,-78.859627,,,0,,,1
594:1,594,Rossland Westbound @ Ritson,,43.917149,-78.862066,,,0,,,1
595:1,595,Rossland Westbound @ Oshawa Boulevard,,43.916682,-78.864393,,,0,,,1
596:1,596,Rossland Westbound @ Minto,,43.916114,-78.866933,,,0,,,2
597:1,597,Rossland Westbound @ Simcoe,,43.915011,-78.87191799999998,,,0,,,1
598:1,598,Rossland Westbound @ Osler,,43.9142915,-78.87505779999998,,,0,,,1
599:1,599,Rossland Westbound @ Glencairn,,43.912489,-78.883143,,,0,,,1
59:1,59,Eastbound @ 701 Gordon,,43.851033,-78.94083999999998,,,0,,,1
600:1,600,Rossland Westbound @ Gibbons,,43.91198,-78.885572,,,0,,,2
602:1,602,Rossland Westbound @ Stevenson,,43.910599,-78.89182099999998,,,0,,,1
603:1,603,Rossland Westbound @ Waverly,,43.909586,-78.89659899999998,,,0,,,1
604:1,604,Rossland Westbound @ Thornton,,43.908595,-78.90127099999998,,,0,,,1
605:1,605,Simcoe Northbound @ Rossland,,43.91553600000001,-78.871221,,,0,,,1
638:1,638,Grandview Northbound @ Ripley,,43.92317417000001,-78.83853,,,0,,,1
639:1,639,Grandview Northbound @ Corbetts,,43.92584,-78.839057,,,0,,,1
63:1,63,Victoria Eastbound @ Henry,,43.86111226967263,-78.93984371488986,,,0,,,1
640:1,640,Grandview Northbound @ Lindsay,,43.92727829,-78.838302,,,0,,,1
641:1,641,Grandview Northbound @ Grandlea,,43.92773900000001,-78.836174,,,0,,,1
642:1,642,Grandview Northbound @ Rathburn,,43.928737,-78.834149,,,0,,,1
643:1,643,Grandview Northbound @ Summitview (South stop),,43.933817,-78.836078,,,0,,,1
644:1,644,Grandview Northbound @ Summitview (North stop),,43.934956,-78.83658,,,0,,,1
645:1,645,Grandview Northbound @ Ridgemount,,43.93717,-78.837565,,,0,,,1
646:1,646,Grandview Northbound @ Glenbourne,,43.939427,-78.838566,,,0,,,1
647:1,647,Grandview Northbound @ Taunton,,43.94095,-78.839225,,,0,,,1
648:1,648,Grandview Northbound @ Park Ridge,,43.94367900000001,-78.840306,,,0,,,1
649:1,649,Grandview Northbound @ Appleby,,43.9463599,-78.8414887,,,0,,,1
64:1,64,Victoria Eastbound @ Charles,,43.861691,-78.937137,,,0,,,1
650:1,650,Simcoe Southbound @ Rossland,,43.914802,-78.87128199999998,,,0,,,1
652:1,652,Simcoe Southbound @ Buckingham,,43.91044473,-78.869478,,,0,,,1
654:1,654,Simcoe Southbound @ Parkwood (Lakeridge Health Oshawa),,43.90554102,-78.86736,,,0,,,1
655:1,655,Simcoe Southbound @ Adelaide,,43.903,-78.866169,,,0,,,2
657:1,657,Centre Southbound @ William,,43.90002900000001,-78.867222,,,0,,,2
659:1,659,Centre Southbound @ King,,43.897281,-78.865958,,,0,,,2
661:1,661,Centre Southbound @ John,,43.893237,-78.863867,,,0,,,1
663:1,663,Centre Southbound @ Gibb,,43.890561,-78.862638,,,0,,,1
664:1,664,Simcoe Southbound @ Royal,,43.887996,-78.859288,,,0,,,2
665:1,665,Simcoe Southbound @ Mill,,43.885542,-78.858189,,,0,,,1
666:1,666,Simcoe Southbound @ First,,43.883745,-78.857382,,,0,,,1
667:1,667,Simcoe Southbound @ Bloor,,43.8810192,-78.85623649999998,,,0,,,2
668:1,668,Simcoe Northbound @ Bloor,,43.88109588,-78.85599499999998,,,0,,,2
669:1,669,Simcoe Northbound @ First,,43.88393400000001,-78.857287,,,0,,,1
670:1,670,Simcoe Northbound @ Albany,,43.885802,-78.858134,,,0,,,1
671:1,671,Simcoe Northbound @ Royal,,43.888214,-78.859208,,,0,,,2
672:1,672,Simcoe Northbound @ Elm St,,43.890377,-78.860193,,,0,,,2
674:1,674,Simcoe Northbound @ John,,43.894039,-78.86185999999998,,,0,,,1
677:1,677,Simcoe Northbound @ Bond,,43.898769,-78.86413,,,0,,,2
678:1,678,Simcoe Northbound @ Colborne,,43.90088592,-78.865075,,,0,,,1
679:1,679,Simcoe Northbound @ Adelaide,,43.903302,-78.866139,,,0,,,1
680:1,680,Simcoe Northbound @ Parkwood (Lakeridge Health Oshawa),,43.905794,-78.867149,,,0,,,1
682:1,682,Simcoe Northbound @ Hillcroft,,43.9108,-78.869386,,,0,,,2
685:1,685,Simcoe Northbound @ Switzer,,43.921189,-78.873688,,,0,,,2
687:1,687,Simcoe Northbound @ Beatrice,,43.92581100000001,-78.875722,,,0,,,1
689:1,689,Simcoe Northbound @ Orchard View,,43.92918800000001,-78.877303,,,0,,,2
691:1,691,Simcoe Northbound @ Taunton (North side stop),,43.933738,-78.879102,,,0,,,1
693:1,693,Simcoe Northbound @ Glovers,,43.936894,-78.880577,,,0,,,1
695:1,695,Simcoe Northbound @ Selleck,,43.940856,-78.88569,,,0,,,2
697:1,697,Simcoe Northbound @ Taylorwood,,43.9442523,-78.8905194,,,0,,,2
698:1,698,Ontario Tech / Durham College North Campus,,43.943641,-78.895505,,,0,,,1
705:1,705,Simcoe Northbound @ Northern Dancer,,43.952855,-78.89823,,,0,,,2
706:1,706,Simcoe Southbound @ Niagara (North stop),,43.94308388677758,-78.88919142270213,,,0,,,2
707:1,707,Simcoe Southbound @ Niagara (South stop),,43.94097195519895,-78.88622547469654,,,0,,,2
710:1,710,Simcoe Southbound @ Cayuga,,43.93549500000001,-78.880108,,,0,,,2
711:1,711,Simcoe Southbound @ Taunton,,43.93236901,-78.87899819,,,0,,,1
713:1,713,Simcoe Southbound @ Orchard View,,43.929238,-78.877548,,,0,,,2
714:1,714,Simcoe Southbound @ Beatrice,,43.926397,-78.876283,,,0,,,2
716:1,716,Simcoe Southbound @ Switzer,,43.921148,-78.873886,,,0,,,2
719:1,719,Adelaide Eastbound @ Kaiser,,43.902369,-78.870727,,,0,,,1
720:1,720,Adelaide Eastbound @ Simcoe,,43.903236,-78.866944,,,0,,,1
721:1,721,Adelaide Eastbound @ Kendal,,43.904587,-78.864226,,,0,,,1
722:1,722,Adelaide Eastbound @ Division,,43.905681,-78.859663,,,0,,,1
724:1,724,Adelaide Eastbound @ Central Park,,43.90771,-78.852306,,,0,,,1
725:1,725,Adelaide Eastbound @ Juliana,,43.908797,-78.848831,,,0,,,1
749:1,749,Adelaide Westbound @ Juliana,,43.908884,-78.848885,,,0,,,1
750:1,750,Adelaide Westbound @ Central Park,,43.907641,-78.852635,,,0,,,1
751:1,751,Adelaide Westbound @ Ritson,,43.906731,-78.85562299999998,,,0,,,1
752:1,752,Adelaide Westbound @ Division,,43.905788,-78.859632,,,0,,,1
753:1,753,Adelaide Westbound @ Kendal,,43.90463900000001,-78.864441,,,0,,,1
754:1,754,Adelaide Westbound @ Simcoe,,43.90394,-78.866193,,,0,,,1
755:1,755,Adelaide Westbound @ Frances,,43.902554,-78.870472,,,0,,,1
7698:1,7698,Ellesmere Eastbound @ Military Trail,,43.786768,-79.187251,,,0,,,1
799:1,799,Grandview Southbound @ Appleby,,43.946346,-78.84174,,,0,,,1
800:1,800,Grandview Southbound @ Park Ridge,,43.94284300000001,-78.84021,,,0,,,1
801:1,801,Grandview Southbound @ Taunton,,43.94091,-78.83936199999998,,,0,,,1
802:1,802,Grandview Southbound @ Glenbourne,,43.93880915,-78.83840499999998,,,0,,,1
803:1,803,Grandview Southbound @ Ridgemount,,43.937222,-78.837723,,,0,,,1
804:1,804,Grandview Southbound @ Summitview,,43.934055,-78.83631699999998,,,0,,,1
805:1,805,Grandview Southbound @ Rathburn,,43.929324,-78.834244,,,0,,,1
806:1,806,Grandview Southbound @ Grandlea,,43.92785527,-78.836264,,,0,,,1
807:1,807,Grandview Southbound @ Lindsay,,43.92730266,-78.83848999999998,,,0,,,1
808:1,808,Grandview Southbound @ Corbetts,,43.92517,-78.83938999999998,,,0,,,1
809:1,809,Grandview Southbound @ Rossland,,43.9229815,-78.8386276,,,0,,,1
810:1,810,Harmony Northbound @ Taunton (North Side Stop),,43.940279,-78.849628,,,0,,,1
812:1,812,Harmony Terminal,,43.942102,-78.848752,,,0,,,1
815:1,815,Harmony Terminal Southbound @ Taunton,,43.94033300000001,-78.847847,,,0,,,1
817:1,817,Delpark Homes Centre,,43.94750100000001,-78.85074299999998,,,0,,,1
823:1,823,Taunton Westbound @ Harmony,,43.939344,-78.850735,,,0,,,1
824:1,824,Taunton Westbound @ Clearbrook,,43.9384,-78.854926,,,0,,,1
825:1,825,Taunton Westbound @ Wilson (East side stop),,43.93758900000001,-78.858528,,,0,,,1
826:1,826,Taunton Westbound @ Wilson (West side stop),,43.936993,-78.861025,,,0,,,2
827:1,827,Taunton Westbound @ Naples,,43.935955,-78.865774,,,0,,,1
828:1,828,Taunton Westbound @ Ritson,,43.9354034,-78.8685493,,,0,,,1
829:1,829,Taunton Westbound @ Somerville,,43.93202615,-78.883392,,,0,,,1
830:1,830,Taunton Westbound @ Patton,,43.931005,-78.887894,,,0,,,1
831:1,831,Westbound @ 418 Taunton,,43.9296729,-78.893897,,,0,,,1
832:1,832,Taunton Westbound @ Stevenson,,43.92879302,-78.89779906,,,0,,,1
833:1,833,Taunton Westbound @ Keith Ross,,43.927623,-78.902849,,,0,,,1
834:1,834,Taunton Westbound @ Thornton,,43.9265,-78.907938,,,0,,,1
835:1,835,Eastbound @ 899 Taunton,,43.92524800000001,-78.912558,,,0,,,1
836:1,836,Taunton Eastbound @ Thornton,,43.92635520000001,-78.907676,,,0,,,1
837:1,837,Taunton Eastbound @ Keith Ross,,43.9274802,-78.902595,,,0,,,1
838:1,838,Taunton Eastbound @ Airport,,43.92843734,-78.89858982,,,0,,,1
839:1,839,Eastbound @ 389 Taunton,,43.9295007,-78.8938222,,,0,,,1
840:1,840,Taunton Eastbound @ Northbrook,,43.930783,-78.888058,,,0,,,1
841:1,841,Taunton Eastbound @ Somerville,,43.93161,-78.884417,,,0,,,1
843:1,843,Taunton Eastbound @ Ritson,,43.935424,-78.86738099999998,,,0,,,1
844:1,844,Taunton Eastbound @ Naples,,43.935787,-78.865706,,,0,,,1
845:1,845,Taunton Eastbound @ Wilson (West side stop),,43.936944,-78.860491,,,0,,,1
846:1,846,Taunton Eastbound @ Wilson (East side stop),,43.937445,-78.85835299999998,,,0,,,1
847:1,847,Taunton Eastbound @ Clearbrook,,43.938297,-78.854571,,,0,,,1
848:1,848,Taunton Eastbound @ Harmony,,43.938789,-78.85238699999998,,,0,,,1
859:1,859,Ritson Southbound @ Ormond,,43.937122,-78.869981,,,0,,,1
861:1,861,Ritson Southbound @ Taunton,,43.934373,-78.868973,,,0,,,1
862:1,862,Ritson Southbound @ Pentland,,43.932714,-78.868262,,,0,,,1
863:1,863,Ritson Southbound @ Beatrice,,43.929724,-78.866915,,,0,,,1
864:1,864,Ritson Southbound @ Oshawa Boulevard (North stop),,43.927268,-78.865798,,,0,,,1
865:1,865,Ritson Southbound @ Highgate,,43.92503569,-78.864766,,,0,,,1
866:1,866,Ritson Southbound @ Wildflower,,43.923364,-78.864075,,,0,,,1
867:1,867,Ritson Southbound @ Darcy,,43.92128128,-78.863175,,,0,,,1
868:1,868,Ritson Southbound @ Rossland,,43.917545,-78.861715,,,0,,,1
869:1,869,Ritson Southbound @ Oshawa Boulevard (South stop),,43.91508300000001,-78.860639,,,0,,,1
870:1,870,Ritson Southbound @ Hillcroft,,43.913394,-78.859886,,,0,,,1
871:1,871,Ritson Southbound @ Rolson,,43.909942,-78.858356,,,0,,,2
872:1,872,Ritson Southbound @ Adelaide,,43.906697,-78.856969,,,0,,,2
879:1,879,Ritson Northbound @ Adelaide,,43.906068,-78.856466,,,0,,,1
880:1,880,Ritson Northbound @ Rolson,,43.91025,-78.85831399999998,,,0,,,2
881:1,881,Ritson Northbound @ Hillcroft,,43.913421,-78.85972599999998,,,0,,,1
882:1,882,Ritson Northbound @ Oshawa Boulevard (South stop),,43.915191,-78.860494,,,0,,,1
883:1,883,Ritson Northbound @ Rossland,,43.917753,-78.86149899999998,,,0,,,1
884:1,884,Ritson Northbound @ Tulip,,43.919499,-78.86217499999998,,,0,,,1
885:1,885,Ritson Northbound @ Darcy,,43.92126249,-78.862948,,,0,,,1
886:1,886,Northbound @ 881 Ritson,,43.92314600000001,-78.863791,,,0,,,1
887:1,887,Ritson Northbound @ Highgate,,43.925002,-78.864607,,,0,,,1
888:1,888,Ritson Northbound @ Oshawa Boulevard (North stop),,43.927335,-78.865643,,,0,,,1
889:1,889,Ritson Northbound @ Beatrice (South stop),,43.928913,-78.866347,,,0,,,1
892:1,892,Ritson Northbound @ Ormond,,43.93767900000001,-78.870106,,,0,,,1
90003:1,90003,Durham Centre Westbound @ Harwood,,43.8645589,-79.02437412,,,0,,,2
90007:1,90007,Victoria Westbound @ Gordon (Abilities Centre),,43.860468,-78.94369,,,0,,,1
90014:1,90014,Eastbound @ 1908 Colonel Sam,,43.876615,-78.804159,,,0,,,1
90015:1,90015,Simcoe Northbound @ Conant,,43.877563,-78.851395,,,0,,,2
90016:1,90016,Westbound @ 1766 Pickering Parkway,,43.84327300000001,-79.067939,,,0,,,1
90038:1,90038,Coldstream Eastbound @ Harmony,,43.944594,-78.8507694,,,0,,,1
90040:1,90040,Coldstream Westbound @ Harmony (East side stop),,43.9447913,-78.8508273,,,0,,,1
90041:1,90041,Coldstream Westbound @ Harmony (West side stop),,43.94435514,-78.852735,,,0,,,1
90042:1,90042,Coldstream Westbound @ Pennel,,43.944835,-78.856035,,,0,,,1
90043:1,90043,Coldstream Westbound @ Clearbrook,,43.94557611,-78.857899,,,0,,,1
90044:1,90044,Coldstream Westbound @ Wilson,,43.946166,-78.862296,,,0,,,1
90045:1,90045,Wilson Northbound @ Greenhill,,43.94900213,-78.86431399999998,,,0,,,1
90050:1,90050,Coldstream Westbound @ Ritson,,43.944435,-78.872409,,,0,,,1
90051:1,90051,Coldstream Eastbound @ Whitestone,,43.9451727,-78.8686743,,,0,,,1
90052:1,90052,Coldstream Westbound @ Ormond,,43.94571,-78.866106,,,0,,,1
90053:1,90053,Coldstream Eastbound @ Ormond,,43.945539,-78.865092,,,0,,,1
90054:1,90054,Wilson Southbound @ Coldstream,,43.945316,-78.862892,,,0,,,1
90055:1,90055,Wilson Southbound @ Larry,,43.94023700000001,-78.860584,,,0,,,1
90056:1,90056,Wilson Southbound @ Taunton,,43.937886,-78.859533,,,0,,,1
90057:1,90057,Southbound @ 1310 Wilson,,43.935634,-78.85862899999998,,,0,,,1
90063:1,90063,Wilson Northbound @ Cavendish,,43.915302,-78.849728,,,0,,,1
90064:1,90064,Wilson Southbound @ Oakwood,,43.915645,-78.849962,,,0,,,1
90065:1,90065,Wilson Northbound @ Rossland,,43.9190034,-78.8512777,,,0,,,1
90066:1,90066,Wilson Southbound @ Rossland,,43.920439,-78.851912,,,0,,,1
90070:1,90070,Wilson Southbound @ Clearsky,,43.943005,-78.861823,,,0,,,1
90076:1,90076,Simcoe Southbound @ Founders,,43.94634257,-78.894148,,,0,,,1
90078:1,90078,Eastbound @ 169 Taunton,,43.9168969,-78.95004,,,0,,,1
90079:1,90079,Westbound @ 1340 Coldstream,,43.94630488,-78.844289,,,0,,,1
90080:1,90080,Eastbound @ 1321 Coldstream,,43.9461252,-78.844471,,,0,,,1
90083:1,90083,Wilson Southbound @ Beatrice,,43.932287,-78.857147,,,0,,,1
90088:1,90088,Taunton Westbound @ Garden (East side stop),,43.9177648,-78.9471226,,,0,,,1
91000:1,91000,Harwood Southbound @ Hunt,,43.847692,-79.020117,,,0,,,1
910:1,910,Coldstream Westbound @ Northfield,,43.945257,-78.868727,,,0,,,1
911:1,911,Harmony Southbound @ Taunton,,43.93885,-78.849298,,,0,,,1
912:1,912,Harmony Southbound @ Grand Ridge,,43.935314,-78.84771499999998,,,0,,,2
913:1,913,Harmony Southbound @ Swiss,,43.933437,-78.84691599999998,,,0,,,1
92003:1,92003,Northbound @ 753 Ritson,,43.88025819,-78.844845,,,0,,,2
92015:1,92015,Eastbound @ 575 Rossland,,43.871325,-79.061348,,,0,,,2
92016:1,92016,Rossland Eastbound @ Harkins,,43.87216,-79.05784,,,0,,,1
92017:1,92017,Rossland Eastbound @ Ravenscroft,,43.873877,-79.053354,,,0,,,1
92041:1,92041,Rossland Westbound @ Woodcock,,43.878759,-79.03210199999998,,,0,,,1
92042:1,92042,Rossland Westbound @ 128 Rossland,,43.878137,-79.03495599999998,,,0,,,1
92043:1,92043,Westney Northbound @ Williamson,,43.884761,-79.046574,,,0,,,2
92045:1,92045,Monarch Southbound @ Stonewood,,43.84443987,-79.025808,,,0,,,2
920461,92046,Clements Westbound @ MacKenzie,,43.834101,-79.023697,,,0,,,1
92047:1,92047,Clements Westbound @ Finley,,43.8333729,-79.0269981,,,0,,,1
92054:1,92054,Northbound @ 133 Salem,,43.86054494,-79.01441303999998,,,0,,,1
92064:1,92064,Salem Southbound @ Williamson,,43.892717,-79.028741,,,0,,,1
92071:1,92071,Salem Southbound @ Twilley,,43.86138006,-79.01519546999998,,,0,,,1
92072:1,92072,Eastbound @ 257 Kingston Road East,,43.8639584,-79.0131049,,,0,,,1
92075:1,92075,Salem Southbound @ Mandrake,,43.85988205000001,-79.01450543,,,0,,,1
927191,93719,Ritison Northbound @ Wolfe,,43.87784,-78.843889,,,0,,,2
93000:1,93000,Colonel Sam Eastbound @ Farewell,,43.879227,-78.827646,,,0,,,1
93001:1,93001,Renaissance Westbound @ Noel,,43.855562,-78.865681,,,0,,,1
93012:1,93012,Taunton Westbound @ Lake Ridge,,43.905218,-79.000873,,,0,,,2
93013:1,93013,Taunton Eastbound @ Lake Ridge,,43.904842,-79.001623,,,0,,,2
93015:1,93015,Rossland Westbound @ Stevensgate,,43.8747274,-79.0500943,,,0,,,2
93016:1,93016,Rossland Westbound @ Ravenscroft,,43.87387648,-79.05380546,,,0,,,1
93024:1,93024,Thornton Southbound @ Monaghan (Trent University Oshawa),,43.88908,-78.892506,,,0,,,1
93026:1,93026,Simcoe Southbound @ Windfields Farm,,43.96308,-78.90291,,,0,,,2
93027:1,93027,Olive Eastbound @ Verdun,,43.8916763,-78.8461123,,,0,,,1
93028:1,93028,Lakeview Westbound @ Birchcliffe,,43.861986,-78.834452,,,0,,,1
93031:1,93031,Harwood Southbound @ Haskell,,43.89090112,-79.03862608999998,,,0,,,2
93035:1,93035,Rossland Eastbound @ Brentwood,,43.91884000000001,-78.85475,,,0,,,1
93036:1,93036,Harmony Northbound @ Coldstream,,43.94528721,-78.85177539999998,,,0,,,1
93040:1,93040,Baldwin Southbound @ Canary,,43.92999275,-78.962969,,,0,,,1
93041:1,93041,Baldwin Northbound @ Canary,,43.93034,-78.96275199999998,,,0,,,1
93048:1,93048,Kingston Eastbound @ Notion,,43.85221471,-79.06469787,,,0,,,2
93054:1,93054,Gibb Westbound @ Stevenson (East side stop),,43.8863306,-78.8793725,,,0,,,1
93055:1,93055,Westney Southbound @ Taunton,,43.89199751000001,-79.05006016999998,,,0,,,1
93056:1,93056,Westney Northbound @ Taunton,,43.89317982,-79.05035663,,,0,,,1
93057:1,93057,Rossland Westbound @ Carter-Bennett,,43.8755334,-79.04638522,,,0,,,2
93058:1,93058,Gordon Westbound @ James Govan,,43.8506919,-78.94358167,,,0,,,1
93059:1,93059,Gordon Eastbound @ James Govan,,43.85061079,-78.94366388,,,0,,,1
93060:1,93060,Kingston Westbound @ Altona,,43.808712,-79.131154,,,0,,,1
93061:1,93061,Kingston Eastbound @ Altona,,43.807572,-79.132422,,,0,,,1
93083:1,93083,Eastbound @ 437 Taunton,,43.91197,-78.97113899999998,,,0,,,1
93093:1,93093,Reach Westbound @ Highway 7/12,,44.10319,-78.99335,,,0,,,2
93094:1,93094,Reach Eastbound @ Highway 7/12,,44.10305000000001,-78.99348999999998,,,0,,,2
93099:1,93099,Altona Southbound @ Twyn Rivers,,43.81744,-79.136556,,,0,,,1
93102:1,93102,Old Simcoe Northbound @ Victoria,,44.093677,-78.95541799999998,,,0,,,1
93106:1,93106,Scugog Eastbound @ High,,44.10026,-78.94311,,,0,,,2
93111:1,93111,Highway 2 Eastbound @ Sandringham,,43.9094692,-78.79465159999998,,,0,,,2
93112:1,93112,Pickering Parkway Terminal,,43.832968,-79.0851,,,0,,,1
93115:1,93115,Victoria Eastbound @ Gordon (Abilities Centre),,43.8600147,-78.9446226,,,0,,,1
93116:1,93116,Westbound @ 1017 Reach,,44.10009,-79.00694,,,0,,,2
93117:1,93117,Eastbound @ 1016 Reach,,44.1,-79.00689,,,0,,,2
93121:1,93121,Station Westbound @ Harwood,,43.85131100000001,-79.022762,,,0,,,2
93122:1,93122,Station Westbound @ Mills,,43.85056,-79.02585999999998,,,0,,,2
93123:1,93123,Station Westbound @ Dowty,,43.8491309,-79.028733,,,0,,,1
93137:1,93137,Salem Northbound @ Elliottglen Dr,,43.895662,-79.0297218,,,0,,,1
93138:1,93138,Salem Southbound @ Dunwell Cr,,43.8955183,-79.029968,,,0,,,1
93139:1,93139,Harwood Southbound @ Taunton,,43.89463400000001,-79.042023,,,0,,,2
93140:1,93140,Harwood Northbound @ Taunton,,43.895046,-79.042096,,,0,,,1
93141:1,93141,Harwood Northbound @ Haskell,,43.8911583,-79.03853429999998,,,0,,,1
93142:1,93142,Harwood Southbound @ Williamson,,43.8885767,-79.0376546,,,0,,,2
93143:1,93143,Rossland Westbound @ Westney,,43.87613300000001,-79.044178,,,0,,,1
93145:1,93145,Southbound @ 964 Salem,,43.879163,-79.017714,,,0,,,1
93146:1,93146,Northbound @ 967 Salem,,43.87883,-79.01727099999998,,,0,,,2
93147:1,93147,Salem Southbound @ Kerrison,,43.8711003,-79.0177387,,,0,,,2
93148:1,93148,Salem Northbound @ Kerrison,,43.8704308,-79.0177597,,,0,,,1
93149:1,93149,Salem Southbound @ Ringer,,43.8671137,-79.0176202,,,0,,,2
93150:1,93150,Salem Northbound @ Ringer,,43.8666738,-79.0171273,,,0,,,1
93151:1,93151,Salem Southbound @ Kingston,,43.86358,-79.016129,,,0,,,1
93152:1,93152,Salem Northbound @ Kingston,,43.86368800000001,-79.015986,,,0,,,1
93158:1,93158,Bayly Westbound @ Audley,,43.850484,-78.98969099999998,,,0,,,1
93159:1,93159,Westbound @ 508 Bayly,,43.8495632,-78.9937104,,,0,,,1
93160:1,93160,Southbound @ 1508 Salem,,43.890577,-79.027818,,,0,,,1
93161:1,93161,Salem Northbound @ Williamson,,43.89315689,-79.028651,,,0,,,1
93177:1,93177,Harmony Northbound @ Taunton (South side stop),,43.939112,-78.849112,,,0,,,1
93178:1,93178,Simcoe Northbound @ Athol,,43.89651,-78.86306,,,0,,,1
93179:1,93179,Eastbound @ 933 Bloor Street West,,43.87183948,-78.89140999999998,,,0,,,2
93183:1,93183,Dean Westbound @ Normandy,,43.88834,-78.844227,,,0,,,1
93185:1,93185,Northbound @ 3193 Thickson,,43.906341,-78.921216,,,0,,,1
93186:1,93186,Thickson Northbound @ Winterberry,,43.9084673,-78.92209579999998,,,0,,,1
93188:1,93188,Thornton Southbound @ Arklow,,43.88768000000001,-78.891874,,,0,,,2
93189:1,93189,Westbound @ 944 Colonel Sam,,43.880828,-78.821307,,,0,,,1
93191:1,93191,Brock Road Southbound @ Finch,,43.85004333,-79.07550836999998,,,0,,,1
93192,93192,Glenanna Eastbound @ Fieldlight,,43.839231,-79.08969999999998,,,0,,,1
93193:1,93193,Pickering Parkway Westbound @ Denmar,,43.843305,-79.073586,,,0,,,1
93194:1,93194,Pickering Parkway Southbound @ Geta,,43.8422129,-79.0739061,,,0,,,1
93195:1,93195,Pickering Parkway Southbound @ Portland,,43.83966433,-79.073091,,,0,,,1
93196:1,93196,Westbound @ 1538 Pickering Parkway,,43.8374808,-79.0771218,,,0,,,1
93197:1,93197,Pickering Parkway Westbound @ Valley Farm,,43.836377,-79.079469,,,0,,,1
93214:1,93214,Southbound @ 1852 Whites,,43.83149310000001,-79.121269,,,0,,,1
93216:1,93216,Whites Southbound @ Kingston,,43.819415,-79.115736,,,0,,,1
93217:1,93217,Whites Northbound @ Kingston,,43.81854417000001,-79.115326,,,0,,,1
93218:1,93218,Oklahoma Eastbound @ Whites,,43.8118895,-79.1114637,,,0,,,1
93219:1,93219,Oklahoma Westbound @ Whites,,43.81194,-79.1119982,,,0,,,1
93220:1,93220,Oklahoma Eastbound @ Eyer,,43.8123605,-79.1093549,,,0,,,1
93221:1,93221,Oklahoma Westbound @ Eyer,,43.812462,-79.1093492,,,0,,,1
93222:1,93222,Oklahoma Eastbound @ Hillcrest,,43.812872,-79.10702,,,0,,,1
93223:1,93223,Oklahoma Eastbound @ Victory,,43.81333974000001,-79.10486,,,0,,,1
93224:1,93224,Oklahoma Eastbound @ West Shore,,43.813811,-79.102832,,,0,,,1
93227:1,93227,Kingston Eastbound @ Port Union,,43.79915600000001,-79.14547,,,0,,,1
93232:1,93232,Pine Grove Westbound @ Altona,,43.82773000000001,-79.142123,,,0,,,1
93234:1,93234,Krosno Eastbound @ Annland,,43.821475,-79.08085199999998,,,0,,,1
93235:1,93235,Krosno Eastbound @ Modlin,,43.821887,-79.078981,,,0,,,1
93236:1,93236,Adelaide Eastbound @ Ritson,,43.906513,-78.85589,,,0,,,1
93240:1,93240,Kingston Westbound @ Sheppard,,43.79950800000001,-79.145701,,,0,,,1
93242:1,93242,Thickson Southbound @ Consumers,,43.873205,-78.90715299999998,,,0,,,1
93243:1,93243,Wentworth Eastbound @ Forbes,,43.85995852,-78.89472,,,0,,,2
93246:1,93246,Phillip Murray Eastbound @ Skae,,43.85485,-78.87405,,,0,,,1
93247:1,93247,Nichol Eastbound @ Springwood,,43.88431645,-78.90604,,,0,,,1
93248:1,93248,Nichol Eastbound @ Thickson,,43.882694,-78.910251,,,0,,,1
932491,93249,Southbound @ 164 Glen Hill,,43.88349500000001,-78.91435,,,0,,,1
93254:1,93254,Kingston Eastbound @ Salem,,43.8634583,-79.0151977,,,0,,,1
93255:1,93255,Ellesmere Eastbound @ Meadowvale,,43.7923,-79.1639,,,0,,,1
93257:1,93257,Champlain Westbound @ Thornton,,43.874044,-78.885968,,,0,,,2
93259:1,93259,Ellesmere Westbound @ Meadowvale,,43.792626,-79.16329399999998,,,0,,,1
93269:1,93269,Reach Westbound @ Scugog Line 8,,44.10086,-79.06161,,,0,,,2
93270:1,93270,Reach Eastbound @ Scugog Line 8,,44.10074,-79.06177,,,0,,,2
93276:1,93276,Champlain Westbound @ Fox,,43.876345,-78.878626,,,0,,,2
93277:1,93277,Eastbound @ 1559 Nichol,,43.882415,-78.912172,,,0,,,1
93305:1,93305,Sandringham Eastbound @ Yorkville,,43.9029456,-78.790222,,,0,,,1
93306:1,93306,Sandringham Northbound @ Hillhurst,,43.90479976000001,-78.788302,,,0,,,1
93307:1,93307,Sandringham Eastbound @ Trulls,,43.9060993,-78.7866448,,,0,,,1
93313:1,93313,Finch Eastbound @ Lynn Heights,,43.842627,-79.107737,,,0,,,2
93323:1,93323,Courtice Northbound @ Moyse,,43.914284,-78.778853,,,0,,,1
93324:1,93324,Courtice Southbound @ Nash,,43.91644200000001,-78.77997,,,0,,,1
93325:1,93325,Courtice Northbound @ Nash,,43.916109,-78.779658,,,0,,,2
93326:1,93326,Courtice Northbound @ George Reynolds,,43.920355,-78.781595,,,0,,,1
93327:1,93327,Courtice Southbound @ George Reynolds,,43.920052,-78.781676,,,0,,,1
93328:1,93328,George Reynolds Westbound @ Sleeman,,43.92032600000001,-78.78806899999998,,,0,,,1
93329:1,93329,George Reynolds Eastbound @ Sleeman,,43.92021600000001,-78.787834,,,0,,,1
93330:1,93330,George Reynolds Westbound @ Trulls,,43.919621,-78.790942,,,0,,,1
93338:1,93338,Trulls Northbound @ Highway 2,,43.911656,-78.788656,,,0,,,1
93342:1,93342,Glenabbey Westbound @ Robert Adams,,43.896689,-78.798658,,,0,,,1
93343:1,93343,Glenabbey Eastbound @ Robert Adams,,43.896487,-78.798938,,,0,,,1
93344:1,93344,Glenabbey Eastbound @ Auburn,,43.89543,-78.80126799999998,,,0,,,1
93345:1,93345,Glenabbey Eastbound @ Townline,,43.893594,-78.806799,,,0,,,2
93346:1,93346,Townline Southbound @ Bloor (North side stop),,43.892222,-78.807249,,,0,,,1
93347:1,93347,Townline Southbound @ Grandview,,43.887704,-78.80528099999998,,,0,,,1
93348:1,93348,Grandview Westbound @ Wesley,,43.886887,-78.806272,,,0,,,1
93349:1,93349,Grandview Northbound @ Wesley,,43.887969,-78.81067299999998,,,0,,,1
93350:1,93350,Bloor Westbound @ Grandview,,43.88987800000001,-78.814294,,,0,,,2
93353:1,93353,Conlin Westbound @ Riverton,,43.955816,-78.86148,,,0,,,2
93354:1,93354,Conlin Eastbound @ Riverton,,43.955617,-78.861844,,,0,,,2
93355:1,93355,Wilson Southbound @ Conlin,,43.953884,-78.866753,,,0,,,2
93356:1,93356,Wilson Northbound @ Conlin,,43.954223,-78.866713,,,0,,,2
93357:1,93357,Wilson Northbound @ Coldstream,,43.9454436,-78.862774,,,0,,,1
93358:1,93358,Wilson Southbound @ Greenhill,,43.94918809,-78.86470199999998,,,0,,,1
93359:1,93359,Wilson Northbound @ Clearsky,,43.943242,-78.86174,,,0,,,1
93360:1,93360,Wilson Northbound @ Blackwood,,43.939709,-78.860169,,,0,,,1
93361:1,93361,Wilson Northbound @ Taunton,,43.936911,-78.85898,,,0,,,1
93362:1,93362,Wilson Northbound @ Beatrice,,43.932443,-78.857028,,,0,,,1
93365:1,93365,Harmony Southbound @ Beatrice,,43.929665,-78.845218,,,0,,,1
93366:1,93366,Harmony Northbound @ Beatrice,,43.92924,-78.844825,,,0,,,1
93367:1,93367,Harmony Southbound @ Storie,,43.928091,-78.844483,,,0,,,1
93368:1,93368,Harmony Northbound @ Storie,,43.92776,-78.84414599999998,,,0,,,1
93369:1,93369,Harmony Northbound @ Rossland (North side stop),,43.922688,-78.841933,,,0,,,1
93370:1,93370,Harmony Southbound @ Rossland,,43.922125,-78.84209,,,0,,,1
93377:1,93377,Adelaide Westbound @ Park,,43.90133500000001,-78.875818,,,0,,,1
93379:1,93379,Adelaide Westbound @ Gibbons,,43.900141,-78.880768,,,0,,,1
93387:1,93387,Major Oaks Northbound @ Pepperwood,,43.858568,-79.08868099999998,,,0,,,1
93388:1,93388,Major Oaks Northbound @ Dellbrook,,43.859848,-79.089555,,,0,,,1
93389:1,93389,Dellbrook Eastbound @ Chapman,,43.86040400000001,-79.084541,,,0,,,1
93390:1,93390,Dellbrook Southbound @ Denby,,43.85831300000001,-79.082123,,,0,,,1
93420:1,93420,Finch Westbound @ Whites,,43.839284,-79.124213,,,0,,,1
93421:1,93421,Altona Northbound @ Strouds,,43.822599,-79.138737,,,0,,,1
93424:1,93424,Coldstream Eastbound @ Clearbrook,,43.94497350000001,-78.8563396,,,0,,,1
93425:1,93425,Harmony Southbound @ Coldstream,,43.9437266,-78.8514735,,,0,,,1
93426:1,93426,Coldstream Eastbound @ Ritson,,43.944385,-78.872175,,,0,,,1
93432:1,93432,Harmony Southbound @ Glebe,,43.91756800000001,-78.840044,,,0,,,1
93435:1,93435,Dellbrook Eastbound @ Melman,,43.858381,-79.08071,,,0,,,1
93441:1,93441,Brock Road Southbound @ Clearside,,43.864641,-79.081998,,,0,,,2
93442:1,93442,Brock Road Northbound @ Concession 3,,43.864696,-79.081702,,,0,,,2
93445:1,93445,Glenabbey Westbound @ Townline,,43.893724,-78.806813,,,0,,,1
93450:1,93450,Pickering Parkway Westbound @ Liverpool,,43.833656,-79.089201,,,0,,,1
93453:1,93453,Harmony Northbound @ Corbetts,,43.924544,-78.842742,,,0,,,1
93454:1,93454,Harmony Southbound @ Corbetts,,43.92509600000001,-78.843164,,,0,,,1
93457:1,93457,Brock Road Northbound @ Dellbrook,,43.85994,-79.07961,,,0,,,1
93458:1,93458,Brock Road Southbound @ Dellbrook,,43.85912,-79.07955,,,0,,,1
93459:1,93459,Thornton Southbound @ Skae,,43.85915911,-78.879187,,,0,,,1
93460:1,93460,Thornton Northbound @ Skae,,43.85911722,-78.879086,,,0,,,2
93461:1,93461,Thornton Southbound @ Phillip Murray,,43.85471414,-78.878845,,,0,,,1
93462:1,93462,Phillip Murray Westbound @ Thornton,,43.85448188,-78.878558,,,0,,,2
93463:1,93463,Wentworth Eastbound @ Boundary,,43.8617546,-78.8863301,,,0,,,2
93464:1,93464,Wentworth Westbound @ Thornton,,43.863046,-78.881491,,,0,,,2
93465:1,93465,Wentworth Eastbound @ Thornton,,43.86294500000001,-78.881117,,,0,,,1
93466:1,93466,Townline Southbound @ Down,,43.888891,-78.805747,,,0,,,1
93492:1,93492,Townline Northbound @ Bloor (South side stop),,43.8908141,-78.8064094,,,0,,,1
93493:1,93493,Coldstream Eastbound @ Wilson,,43.945803,-78.86329499999998,,,0,,,1
93495:1,93495,Brock Road Southbound @ Orangebrook,,43.83056,-79.066528,,,0,,,2
93496:1,93496,Brock Road Southbound @ Quigley,,43.828737,-79.065713,,,0,,,2
93497:1,93497,Clements Eastbound @ Brock Road,,43.825056,-79.062901,,,0,,,1
93498:1,93498,Eastbound @ 1845 Clements,,43.82558800000001,-79.06062799999998,,,0,,,2
93499:1,93499,Eastbound @ 1885 Clements,,43.826442,-79.056838,,,0,,,2
93500:1,93500,Clements Eastbound @ Squires Beach,,43.82698100000001,-79.054408,,,0,,,2
93501:1,93501,Squires Beach Southbound @ Clements,,43.824718,-79.053242,,,0,,,2
93502:1,93502,Squires Beach Southbound @ McKay,,43.821685,-79.051934,,,0,,,2
93503:1,93503,Westbound @ 850 McKay,,43.820706,-79.055786,,,0,,,2
93504:1,93504,Southbound @ 770 McKay,,43.81876900000001,-79.057412,,,0,,,2
93506:1,93506,Montgomery Park Westbound @ Brock Road,,43.815712,-79.059768,,,0,,,2
93507:1,93507,Sandy Beach Northbound @ Montgomery Park,,43.81511785,-79.07052899999998,,,0,,,2
93509:1,93509,Sandy Beach Northbound @ Parkham,,43.819466,-79.072332,,,0,,,1
93510:1,93510,Lublin Northbound @ Balaton,,43.822082,-79.074392,,,0,,,2
93511:1,93511,Alyssum Westbound @ Krosno,,43.8241576,-79.0759742,,,0,,,2
93512:1,93512,Krosno Westbound @ Modlin,,43.8219172,-79.0792351,,,0,,,1
93519:1,93519,Montgomery Park Westbound @ OPG Pickering,,43.8144291,-79.0652288,,,0,,,2
935211,93521,Adelaide Westbound @ Fernhill,,43.899535,-78.883283,,,0,,,2
93522:1,93522,Townline Southbound @ Bloor (South side stop),,43.890704,-78.806551,,,0,,,1
93527:1,93527,Wentworth Westbound @ Boundary (East side stop),,43.86224717000001,-78.885536,,,0,,,2
93531:1,93531,Mary Northbound @ Ormond,,43.93546700000001,-78.87353899999998,,,0,,,2
93534:1,93534,Glenabbey Westbound @ Prestonvale,,43.89786363000001,-78.794723,,,0,,,2
93535:1,93535,Glenabbey Eastbound @ Prestonvale,,43.89762825,-78.795147,,,0,,,2
93536:1,93536,Glenabbey Southbound @ Oke,,43.901355,-78.792329,,,0,,,1
93537:1,93537,Glenabbey Northbound @ Found,,43.900483,-78.791802,,,0,,,1
93542:1,93542,Kingston Eastbound @ Liverpool,,43.835851,-79.09007,,,0,,,1
93552:1,93552,Harmony Northbound @ Capri,,43.90136600000001,-78.832565,,,0,,,1
93553:1,93553,Winchester Westbound @ Cachet,,43.95900300000001,-78.936407,,,0,,,2
935561,93556,Bayly Westbound @ Lake Ridge,,43.852679,-78.979746,,,0,,,2
935571,93557,Bayly Eastbound @ Lake Ridge,,43.852479,-78.97930599999998,,,0,,,2
935581,93558,Victoria Eastbound @ Halls,,43.853654,-78.974109,,,0,,,2
935591,93559,Victoria Eastbound @ Seaboard Gate,,43.8581551,-78.9532997,,,0,,,2
935621,93562,Britannia Westbound @ Kedron,,43.9562646,-78.8795994,,,0,,,2
935641,93564,Britannia Westbound @ Pindar,,43.955218,-78.884259,,,0,,,2
935671,93567,Britannia Westbound @ Secreto,,43.955815,-78.889993,,,0,,,2
935681,93568,Britannia Westbound @ Bridle,,43.956057,-78.892605,,,0,,,2
935951,93595,Northbound @ 177 Dowty,,43.846437,-79.027375,,,0,,,1
935961,93596,Southbound @ 160 Dowty,,43.846555,-79.02766,,,0,,,1
935971,93597,Wentworth Eastbound @ Wilson,,43.87798200000001,-78.832502,,,0,,,2
935981,93598,Wentworth Eastbound @ Farewell,,43.878892,-78.829054,,,0,,,2
935991,93599,Liverpool Southbound @ East Shore Community Centre,,43.82672,-79.086556,,,0,,,1
936081,93608,Rossland Eastbound @ Des Newman,,43.88980200000001,-78.983372,,,0,,,1
936091,93609,Rossland Westbound @ Des Newman,,43.889813,-78.984482,,,0,,,1
936101,93610,Rossland Westbound @ Coronation,,43.89277,-78.972246,,,0,,,2
936111,93611,Rossland Eastbound @ Coronation,,43.892561,-78.972611,,,0,,,2
936221,93622,Harwood Southbound @ Harwood Plaza,,43.845427,-79.019197,,,0,,,1
937001,93700,Ritson Northbound @ Bond,,43.900361,-78.853953,,,0,,,1
937041,93704,Railway Southbound @ Albert,,44.10964400000001,-79.125063,,,0,,,2
937051,93705,Highway 2 Eastbound @ Boswell,,43.90931,-78.715382,,,0,,,2
937061,93706,Hunt Westbound @ Harwood,,43.847287,-79.02099699999998,,,0,,,1
937071,93707,Bloor Eastbound @ Park,,43.877851,-78.866602,,,0,,,2
937081,93708,Bloor Westbound @ Park,,43.877762,-78.86810699999998,,,0,,,2
937101,93710,Ritson Northbound @ Athol,,43.898724,-78.853139,,,0,,,2
937111,93711,Ritson Northbound @ Eulalie,,43.895036,-78.851457,,,0,,,2
937121,93712,Ritson Northbound @ Olive,,43.890786,-78.849532,,,0,,,2
937131,93713,Ritson Southbound @ Athol,,43.898959,-78.853486,,,0,,,2
937141,93714,Ritson Southbound @ Eulalie,,43.89525600000001,-78.85178,,,0,,,2
937151,93715,Ritson Southbound @ Olive,,43.891023,-78.849841,,,0,,,2
937181,93718,Ritson Southbound @ William,,43.902586,-78.855132,,,0,,,2
937201,93720,Clarington Northbound @ Prince William,,43.908273,-78.706862,,,0,,,2
937211,93721,Durham Highway 2 @ Courtice Road,,43.9121115,-78.777044,,,0,,,2
937221,93722,Durham Highway 2 Westbound @ Hancock,,43.9140769,-78.769786,,,0,,,2
937231,93723,Durham Highway 2 Eastbound @ Hancock,,43.9133221,-78.770601,,,0,,,2
937241,93724,Durham Highway 2 Westbound @ Solina,,43.9144556,-78.756297,,,0,,,2
937251,93725,Durham Highway 2 Eastbound @ Solina,,43.9138579,-78.756069,,,0,,,2
937261,93726,Durham Highway 2 Westbound @ Rundle,,43.9140712,-78.745721,,,0,,,2
937271,93727,Durham Highway 2 Eastbound @ Rundle,,43.9136054,-78.745863,,,0,,,2
937281,93728,Durham Highway 2 Westbound @ Holt,,43.9126438,-78.734177,,,0,,,2
937291,93729,Durham Highway 2 Eastbound @ Holt,,43.9123477,-78.735274,,,0,,,2
937301,93730,Durham Highway 2 Westbound @ Maple Grove,,43.9107906,-78.72386,,,0,,,2
937311,93731,Durham Highway 2 Eastbound @ Maple Grove,,43.91044930000001,-78.723765,,,0,,,2
937321,93732,Clarington Blvd Westbound @ Green Road,,43.9054377,-78.70954,,,0,,,2
937331,93733,Durham Highway 2 Eastbound @ Bowmanville Ave,,43.9109185,-78.70230599999998,,,0,,,2
937341,93734,Durham Highway 2 Westbound @ Bowmanville Ave,,43.9116381,-78.701406,,,0,,,2
937351,93735,Garrard Northbound @ Griffen,,43.923381,-78.91789199999998,,,0,,,2
937361,93736,Garrard Northbound @ Gagnon,,43.919757,-78.91632199999998,,,0,,,2
937371,93737,Garrard Northbound @ Dryden,,43.917454,-78.915265,,,0,,,2
937381,93738,Dryden Eastbound @ Steele Valley,,43.915641,-78.918736,,,0,,,2
937391,93739,Dryden Eastbound @ Waller,,43.91477900000001,-78.921612,,,0,,,2
937401,93740,Brock Street Eastbound @ Toronto Street,,44.108695,-79.122934,,,0,,,2
937471,93747,Dundas Eastbound @ Des Newman,,43.873089,-78.971771,,,0,,,2
937491,93749,Dundas Westbound @ Des Newman,,43.873682,-78.970969,,,0,,,2
937651,93765,Dean Westbound @ Ritson,,43.88649853166958,-78.84746939310502,,,0,,,2
939242,93924,Thornton Southbound @ Del Monte,,43.867787,-78.882859,,,0,,,2
939371,93937,Simcoe Southbound @ Northern Dancer,,43.95228111,-78.89825264,,,0,,,1
939421,93942,Northbound @ 1955 Valley Farm Road,,43.846188,-79.084113,,,0,,,2
939431,93943,Valley Farm Northbound @ Kingston,,43.843753,-79.08308599999998,,,0,,,2
939441,93944,Finch Eastbound @ Whites,,43.839422,-79.122716,,,0,,,2
939691,93969,Sheppard Westbound @ Meadowvale (East side stop),,43.80852500000001,-79.170563,,,0,,,2
939791,93979,Sheppard Westbound @ Morningside,,43.80197600000001,-79.200526,,,0,,,2
939811,93981,Sheppard Westbound @ Brenyon,,43.800473,-79.20762499999998,,,0,,,2
939841,93984,Sheppard Westbound @ Neilson,,43.798313,-79.217426,,,0,,,2
939871,93987,Sheppard Westbound @ Washburn Way,,43.796344,-79.227343,,,0,,,2
939891,93989,Progress Southbound @ Sheppard,,43.794213,-79.23491799999998,,,0,,,2
939911,93991,Progress Southbound @ Milner Avenue,,43.790487,-79.23437199999998,,,0,,,2
939931,93993,Progress Southbound @ Centennial College,,43.783468,-79.23197399999998,,,0,,,2
939941,93994,Progress Westbound @ Markham Road,,43.781656,-79.234801,,,0,,,2
939971,93997,Grangeway Southbound @ Progress,,43.775976,-79.250532,,,0,,,2
939981,93998,McCowan Station,,43.774936,-79.25217499999998,,,0,,,2
939991,93999,McCowan Northbound @ Progress,,43.776643,-79.252857,,,0,,,2
939:1,939,Stevenson Southbound @ Phillip Murray,,43.856089,-78.86721199999998,,,0,,,1
940021,94002,Progress Eastbound @ Bellamy,,43.78017420754376,-79.24343282725708,,,0,,,2
940061,94006,Progress Eastbound @ Markham Road,,43.781933,-79.233259,,,0,,,2
940071,94007,Progress Northbound @ Centennial College,,43.783526,-79.231618,,,0,,,2
940091,94009,Progress Northbound @ Milner Avenue,,43.789947,-79.23394999999998,,,0,,,2
940111,94011,Progress Northbound @ Sheppard,,43.794411,-79.234769,,,0,,,2
940131,94013,Sheppard Eastbound @ Lapsley,,43.79617300000001,-79.226955,,,0,,,2
940161,94016,Sheppard Eastbound @ Neilson,,43.79793500000001,-79.21787,,,0,,,2
940191,94019,Sheppard Eastbound @ Breckon,,43.80027,-79.20723,,,0,,,2
940211,94021,Sheppard Eastbound @ Morningside,,43.80175100000001,-79.20000899999998,,,0,,,2
940301,94030,Sheppard Eastbound @ Meadowvale (East side stop),,43.808442,-79.169871,,,0,,,2
940371,94037,Trulls Northbound @ Nash,,43.913854,-78.789545,,,0,,,2
940381,94038,Trulls Northbound @ Cecil Found,,43.917206,-78.790964,,,0,,,2
940391,94039,Trulls Northbound @ George Reynolds,,43.919116,-78.791855,,,0,,,2
940401,94040,Trulls Southbound @ Devondale,,43.917123,-78.791102,,,0,,,2
940411,94041,Trulls Southbound @ Nash,,43.914181,-78.789765,,,0,,,2
940421,94042,Trulls Southbound @ Durham Highway 2,,43.9112,-78.788622,,,0,,,2
940481,94048,Grandview Southbound @ Greenhill,,43.952296,-78.844517,,,0,,,2
940491,94049,Conlin Westbound @ Ritson (East side stop),,43.952552,-78.87615,,,0,,,2
940501,94050,Ritson Southbound @ Maine,,43.953015,-78.877242,,,0,,,2
940511,94051,Britannia Eastbound @ Ritson,,43.956148,-78.878843,,,0,,,2
940521,94052,Britannia Eastbound @ Raike,,43.954945,-78.885386,,,0,,,2
940541,94054,Progress Westbound @ Corporate Drive,,43.78018,-79.2444,,,0,,,2
940551,94055,Kendalwood Northbound @ Dundas,,43.888421,-78.902732,,,0,,,1
940561,94056,Kendalwood Southbound @ Dundas,,43.887927,-78.902869,,,0,,,1
940591,94059,McQuay Southbound @ Rossland,,43.89052,-78.97844,,,0,,,2
940601,94060,McQuay Eastbound @ Muir,,43.889751,-78.973695,,,0,,,2
940611,94061,McQuay Eastbound @ Jacob,,43.889924,-78.971264,,,0,,,2
940621,94062,McQuay Southbound @ Renfield,,43.888161,-78.969356,,,0,,,2
940641,94064,McQuay Southbound @ Bonacord,,43.88422400000001,-78.96784,,,0,,,2
940661,94066,Morningside Northbound @ Military Trail,,43.78888,-79.19394,,,0,,,1
940671,94067,Elesmere Westbound @ Moringside,,43.785544,-79.19309199999998,,,0,,,2
940701,94070,Ritson Southbound @ McNaughton,,43.88665000000001,-78.8479,,,0,,,2
940711,94071,Garden Southbound @ Manning (North side stop),,43.89484,-78.93797,,,0,,,2
940721,94072,Manning Eastbound @ Garden,,43.89417000000001,-78.93907,,,0,,,2
940791,94079,Liverpool Northbound @ Finch,,43.84532500000001,-79.094419,,,0,,,1
940801,94080,Valley Farm Northbound @ Bloomfield,,43.848572,-79.085389,,,0,,,1
940811,94081,Greenmount Eastbound @ Major Oaks,,43.85717000000001,-79.087286,,,0,,,2
940821,94082,Brock Road Northbound @ Rossland,,43.868608,-79.08292899999998,,,0,,,1
940831,94083,Brock Road Southbound @ Rossland,,43.867969,-79.083181,,,0,,,1
940841,94084,Brock Road Northbound @ William Jackson,,43.874896,-79.085571,,,0,,,1
940851,94085,Zents Westbound @ Brock Road,,43.879619,-79.088856,,,0,,,1
940861,94086,Greenmount Westbound @ Major Oaks,,43.857079,-79.087567,,,0,,,2
940881,94088,Monarch Northbound @ Clements,,43.834981,-79.021702,,,0,,,2
940891,94089,Clements Eastbound @ Finley,,43.833128,-79.027482,,,0,,,2
940901,94090,Clements Westbound @ Westney,,43.832102,-79.032704,,,0,,,1
940911,94091,Adelaide Westbound @ Waverley,,43.89807600000001,-78.890673,,,0,,,2
940921,94092,Adelaide Eastbound @ Waverley,,43.89786500000001,-78.891092,,,0,,,2
940931,94093,Winchester Eastbound @ Cachet,,43.958574,-78.937482,,,0,,,1
940941,94094,Winchester Eastbound @ Winchester,,43.957557,-78.942081,,,0,,,1
940951,94095,Liverpool Southbound @ Finch,,43.844825,-79.094491,,,0,,,1
940961,94096,Adelaide Eastbound @ Stevenson,,43.89873200000001,-78.886166,,,0,,,2
940971,94097,Adelaide Eastbound @ Gibbons,,43.899898,-78.881242,,,0,,,1
940981,94098,Adelaide Eastbound @ Park,,43.90105,-78.876259,,,0,,,2
940991,94099,Adelaide Westbound @ Stevenson,,43.899015,-78.885722,,,0,,,2
940:1,940,Stevenson Northbound @ Phillip Murray,,43.85612600000001,-78.867067,,,0,,,1
941001,,Whites Southbound @ Strouds (South side stop),,43.829,-79.12018,,,0,,,2
941011,94101,Taunton Westbound @ Des Newman,,43.907533,-78.990971,,,0,,,1
941021,94102,Taunton Eastbound @ Des Newman,,43.907164,-78.99142999999998,,,0,,,1
941:1,941,Stevenson Northbound @ Laval,,43.879998,-78.877266,,,0,,,1
942:1,942,Stevenson Northbound @ Gibb,,43.88574400000001,-78.879867,,,0,,,1
944:1,944,Stevenson Northbound @ Cartier (North side stop),,43.88983507,-78.881804,,,0,,,1
9473:1,9473,Ellesmere Westbound @ Military Trail,,43.7866837,-79.188152,,,0,,,1
955:1,955,Southbound @ 104 Stevenson,,43.89017014,-78.882155,,,0,,,1
958:1,958,Stevenson Southbound @ Gibb,,43.8854908,-78.880117,,,0,,,1
959:1,959,Stevenson Southbound @ Laval,,43.88086100000001,-78.877979,,,0,,,1
960:1,960,Renaissance Eastbound @ O'Hara,,43.855299,-78.86588999999998,,,0,,,1
961:1,961,Renaissance Eastbound @ Connery,,43.856592,-78.863184,,,0,,,1
962:1,962,Renaissance Eastbound @ Beaverbrook,,43.856864,-78.860358,,,0,,,1
963:1,963,Renaissance Eastbound @ Charter,,43.856992,-78.857805,,,0,,,1
964:1,964,Lakeview Eastbound @ Lakefield,,43.85641,-78.855429,,,0,,,1
965:1,965,Lakeview Eastbound @ Lakemount,,43.8568849,-78.8531541,,,0,,,1
970:1,970,Renaissance Westbound @ Charter,,43.85708000000001,-78.857771,,,0,,,1
971:1,971,Renaissance Westbound @ Beaverbrook,,43.856922,-78.860568,,,0,,,1
972:1,972,Renaissance Westbound @ Connery,,43.856696,-78.863105,,,0,,,1
973:1,973,Phillip Murray Westbound @ Skae,,43.85493300000001,-78.874097,,,0,,,2
984:1,984,Lakeview Westbound @ Lakemount,,43.857059,-78.85286,,,0,,,1
985:1,985,Lakeview Westbound @ Park,,43.856405,-78.855793,,,0,,,1
987:1,987,Cedar Northbound @ Banff,,43.864875,-78.8492,,,0,,,1
988:1,988,Cedar Northbound @ Killarney,,43.867212,-78.850005,,,0,,,1
989:1,989,Cedar Northbound @ Wentworth,,43.86968,-78.851091,,,0,,,1
990:1,990,Oxford Southbound @ Calvert,,43.868657,-78.853995,,,0,,,1
991:1,991,Oxford Southbound @ Chandos,,43.867666,-78.853571,,,0,,,1
992:1,992,Oxford Southbound @ Kinmount,,43.86448,-78.8526593,,,0,,,1
993:1,993,Oxford Southbound @ Dwight,,43.862572,-78.85359099999998,,,0,,,1
994:1,994,Oxford Southbound @ Phillip Murray,,43.86046419,-78.85287099999998,,,0,,,1
995:1,995,Oxford Northbound @ Emerald,,43.86114517,-78.852973,,,0,,,1
996:1,996,Oxford Northbound @ Dwight,,43.862763,-78.853452,,,0,,,1
997:1,997,Oxford Northbound @ Venus,,43.864934,-78.852459,,,0,,,1
998:1,998,Oxford Northbound @ Wentworth,,43.868849,-78.853952,,,0,,,1
999951,93555,Victoria Westbound @ Halls,,43.85395,-78.973499,,,0,,,2
999961,93554,Victoria Westbound @ Jeffery,,43.858353,-78.953388,,,0,,,2
999:1,999,Glen Northbound @ Porter,,43.87028394,-78.854489,,,0,,,1
94063:1,McQuay Southbound @ Guthrie,,43.885318,-78.968639,,,0,,,2
